,Neighbourhood,Neighbourhood Latitude,Neighbourhood Longitude,Venue,Venue Latitude,Venue Longitude,Venue Category
0,Parkwoods,43.7611243,-79.32405940000002,Allwyn's Bakery,43.75984035203157,-79.32471879917513,Caribbean Restaurant
1,Parkwoods,43.7611243,-79.32405940000002,Tim Hortons,43.76066827030228,-79.32636763515987,Café
2,Parkwoods,43.7611243,-79.32405940000002,A&W,43.760643076161315,-79.3268649067081,Fast Food Restaurant
3,Parkwoods,43.7611243,-79.32405940000002,LCBO,43.75777384662435,-79.31425673330513,Liquor Store
4,Parkwoods,43.7611243,-79.32405940000002,Dollarama,43.758135,-79.310672,Discount Store
5,Parkwoods,43.7611243,-79.32405940000002,Fat Bastard Burrito Co,43.77414615272252,-79.3222757269027,Burrito Place
6,Parkwoods,43.7611243,-79.32405940000002,Shoppers Drug Mart,43.76085733239677,-79.32496051573521,Pharmacy
7,Parkwoods,43.7611243,-79.32405940000002,Lara's Restaurant,43.77275131307785,-79.33281161231807,Middle Eastern Restaurant
8,Parkwoods,43.7611243,-79.32405940000002,Tim Hortons,43.77156824953461,-79.32039215232635,Coffee Shop
9,Parkwoods,43.7611243,-79.32405940000002,Omni Palace Noodle House,43.771047,-79.33157,Chinese Restaurant
10,Parkwoods,43.7611243,-79.32405940000002,Starbucks,43.773219,-79.321634,Coffee Shop
11,Parkwoods,43.7611243,-79.32405940000002,Aroma Espresso Bar,43.77088,-79.331775,Coffee Shop
12,Parkwoods,43.7611243,-79.32405940000002,Food Basics,43.76054899113784,-79.32604520023006,Supermarket
13,Parkwoods,43.7611243,-79.32405940000002,Brookbanks Park,43.751976046055574,-79.33214044722958,Park
14,Parkwoods,43.7611243,-79.32405940000002,Staples,43.7583791,-79.3106954,Paper / Office Supplies Store
15,Parkwoods,43.7611243,-79.32405940000002,Athens Pastries,43.77391055417276,-79.32228407811631,Bakery
16,Parkwoods,43.7611243,-79.32405940000002,Noodle Delight,43.77239870424429,-79.3202087535388,Chinese Restaurant
17,Parkwoods,43.7611243,-79.32405940000002,My Place Fish & Chips,43.77418906091909,-79.32247627212145,Seafood Restaurant
18,Parkwoods,43.7611243,-79.32405940000002,Tim Hortons,43.75281395751706,-79.3140672147274,Coffee Shop
19,Parkwoods,43.7611243,-79.32405940000002,Wendy’s,43.77189902333657,-79.3206020398884,Fast Food Restaurant
20,Parkwoods,43.7611243,-79.32405940000002,Pizza Pizza,43.76023098701761,-79.32566642761229,Pizza Place
21,Parkwoods,43.7611243,-79.32405940000002,The Beer Store,43.7582748,-79.3137052,Beer Store
22,Parkwoods,43.7611243,-79.32405940000002,Wishing Well Park,43.76952882397673,-79.31648254394531,Park
23,Parkwoods,43.7611243,-79.32405940000002,Edward Village,43.77073743663521,-79.33626651763916,Hotel
24,Parkwoods,43.7611243,-79.32405940000002,Tim Hortons,43.75829469411578,-79.31230985443108,Coffee Shop
25,Parkwoods,43.7611243,-79.32405940000002,Subway,43.758072972398836,-79.31223512364829,Sandwich Place
26,Parkwoods,43.7611243,-79.32405940000002,Petro-Canada,43.763238,-79.318133,Gas Station
27,Parkwoods,43.7611243,-79.32405940000002,China Cottage,43.759097495523434,-79.3104188485618,Hakka Restaurant
28,Parkwoods,43.7611243,-79.32405940000002,Beiruti Grand Cafe,43.773001568417364,-79.33253288902613,Middle Eastern Restaurant
29,Parkwoods,43.7611243,-79.32405940000002,Esquire Restaurant,43.77439095022272,-79.32266690928869,Greek Restaurant
30,Parkwoods,43.7611243,-79.32405940000002,Shoppers Drug Mart,43.75744,-79.312548,Pharmacy
31,Parkwoods,43.7611243,-79.32405940000002,Petro-Canada,43.75795,-79.315187,Gas Station
32,Parkwoods,43.7611243,-79.32405940000002,Second Cup,43.757482276690645,-79.31169510099224,Coffee Shop
33,Parkwoods,43.7611243,-79.32405940000002,TD Canada Trust,43.77349473581211,-79.32202776305725,Bank
34,Parkwoods,43.7611243,-79.32405940000002,Swiss Chalet,43.77346117679879,-79.3218230293486,Restaurant
35,Parkwoods,43.7611243,-79.32405940000002,Wild Wing,43.75619568821282,-79.31451382469172,Wings Joint
36,Parkwoods,43.7611243,-79.32405940000002,Subway,43.77267826407578,-79.32078546627042,Sandwich Place
37,Parkwoods,43.7611243,-79.32405940000002,Harvey's,43.77331930478634,-79.32180886019552,Restaurant
38,Parkwoods,43.7611243,-79.32405940000002,Metro,43.75664255813588,-79.31363940238953,Supermarket
39,Parkwoods,43.7611243,-79.32405940000002,TD Canada Trust,43.7575688,-79.3149756,Bank
40,Parkwoods,43.7611243,-79.32405940000002,Parkwoods Coin Laundry,43.76038596280906,-79.32489395141602,Laundry Service
41,Parkwoods,43.7611243,-79.32405940000002,Dollarama,43.760341,-79.325519,Discount Store
42,Parkwoods,43.7611243,-79.32405940000002,Spicy Chicken House,43.76063939666398,-79.32567060771729,Chinese Restaurant
43,Parkwoods,43.7611243,-79.32405940000002,Sushi Ichiban,43.758911588132406,-79.31081062930812,Sushi Restaurant
44,Parkwoods,43.7611243,-79.32405940000002,King Georges Arms,43.773062879702394,-79.32259240179765,Pub
45,Parkwoods,43.7611243,-79.32405940000002,TTC Stop #09083,43.75965484896959,-79.33222296778834,Bus Stop
46,Parkwoods,43.7611243,-79.32405940000002,Timothy's World Coffee,43.76961,-79.330904,Coffee Shop
47,Parkwoods,43.7611243,-79.32405940000002,Rogers,43.7587371,-79.3143831,Electronics Store
48,Parkwoods,43.7611243,-79.32405940000002,DVP at York Mills,43.758898765048286,-79.3340989154166,Intersection
49,Parkwoods,43.7611243,-79.32405940000002,Marble Slab Creamery,43.75735091894785,-79.31246459484105,Ice Cream Shop
50,Parkwoods,43.7611243,-79.32405940000002,The Sunshine Patio,43.764607644690656,-79.33610615405992,BBQ Joint
51,Parkwoods,43.7611243,-79.32405940000002,Fido,43.75705612523853,-79.31214590652928,Mobile Phone Shop
52,Parkwoods,43.7611243,-79.32405940000002,Mega Wraps,43.77112674416598,-79.3237566947937,Sandwich Place
53,Parkwoods,43.7611243,-79.32405940000002,Pharmacy Ave & Ellesmere Rd,43.75913098830876,-79.31012879382847,Intersection
54,Parkwoods,43.7611243,-79.32405940000002,Wimpy's Diner,43.759334850907884,-79.3098316408897,Breakfast Spot
55,Parkwoods,43.7611243,-79.32405940000002,Terraview Park,43.76620980698434,-79.3113814533775,Park
56,Parkwoods,43.7611243,-79.32405940000002,TTC Stop #9075,43.75759633714484,-79.33815479278564,Train Station
57,Parkwoods,43.7611243,-79.32405940000002,Don Valley Prkwy and Hwy 401,43.76611358517061,-79.33831828403376,Intersection
58,Parkwoods,43.7611243,-79.32405940000002,Hong Tai Supermarket,43.772896050684956,-79.32133688832404,Grocery Store
59,Parkwoods,43.7611243,-79.32405940000002,Highway 401 & 404 Merge,43.76807896937376,-79.33872196257575,Intersection
60,Victoria Village,43.732658,-79.3111892,Jatujak,43.736207542145884,-79.30766830088342,Thai Restaurant
61,Victoria Village,43.732658,-79.3111892,Armenian Kitchen,43.73107096414275,-79.30539020048727,Middle Eastern Restaurant
62,Victoria Village,43.732658,-79.3111892,Naan & Kabob Halal,43.74290326259434,-79.30514824489153,Middle Eastern Restaurant
63,Victoria Village,43.732658,-79.3111892,Damas Grillhouse & Juice Bar,43.74183944758683,-79.30929636830312,Mediterranean Restaurant
64,Victoria Village,43.732658,-79.3111892,Shawarma Empire,43.743405300438305,-79.30364913090075,Middle Eastern Restaurant
65,Victoria Village,43.732658,-79.3111892,North Beach Indoor Volleyball Academy,43.73719098696113,-79.32371442851704,Gym / Fitness Center
66,Victoria Village,43.732658,-79.3111892,Ghadir Mid-Eastern Grocery,43.74363845933303,-79.30423348681926,Grocery Store
67,Victoria Village,43.732658,-79.3111892,Georgy Porgy's,43.74166840284008,-79.31462510722652,American Restaurant
68,Victoria Village,43.732658,-79.3111892,Baskin-Robbins,43.742158294897465,-79.31414057283564,Ice Cream Shop
69,Victoria Village,43.732658,-79.3111892,Patna Kebab House,43.743513095785126,-79.30163584158643,Indian Restaurant
70,Victoria Village,43.732658,-79.3111892,Arz Fine Foods,43.74389829414246,-79.30099567107857,Supermarket
71,Victoria Village,43.732658,-79.3111892,Shooters Snooker & Sports Club,43.7426369394914,-79.3130521120638,Pool Hall
72,Victoria Village,43.732658,-79.3111892,Victoria Village Arena,43.72348055545508,-79.31563520925143,Hockey Arena
73,Victoria Village,43.732658,-79.3111892,Shirin Kebab House,43.72550281069787,-79.29813211961901,Middle Eastern Restaurant
74,Victoria Village,43.732658,-79.3111892,Bulk Barn,43.726398794850354,-79.29996389360734,Grocery Store
75,Victoria Village,43.732658,-79.3111892,Nasib's Shawarma & Falafel,43.743512,-79.3023,Middle Eastern Restaurant
76,Victoria Village,43.732658,-79.3111892,Tim Hortons,43.72339929887286,-79.30264703929424,Coffee Shop
77,Victoria Village,43.732658,-79.3111892,Winners,43.7291479,-79.2939779,Department Store
78,Victoria Village,43.732658,-79.3111892,Toronto Soccerplex,43.734971422149435,-79.32481355250454,Soccer Field
79,Victoria Village,43.732658,-79.3111892,The Bean Sprout,43.742228835254664,-79.31357696452841,Chinese Restaurant
80,Victoria Village,43.732658,-79.3111892,Petro-Canada,43.725905,-79.296675,Gas Station
81,Victoria Village,43.732658,-79.3111892,Portugril,43.72581876267242,-79.31278541470671,Portuguese Restaurant
82,Victoria Village,43.732658,-79.3111892,Super Hakka Restaurant,43.74289206733354,-79.30494945617208,Chinese Restaurant
83,Victoria Village,43.732658,-79.3111892,Tim Hortons,43.74157865703848,-79.3189662694931,Coffee Shop
84,Victoria Village,43.732658,-79.3111892,Ali's No Frills,43.72566,-79.297823,Grocery Store
85,Victoria Village,43.732658,-79.3111892,GoodLife Fitness North York Victoria Terrace,43.742128,-79.31459,Gym
86,Victoria Village,43.732658,-79.3111892,Tim Hortons,43.725516631714754,-79.31310251366091,Coffee Shop
87,Victoria Village,43.732658,-79.3111892,The Beer Store,43.7220856,-79.30093,Beer Store
88,Victoria Village,43.732658,-79.3111892,PizzaLand,43.74294578432365,-79.30508024882042,Pizza Place
89,Victoria Village,43.732658,-79.3111892,TD Canada Trust,43.7243718,-79.2989645,Bank
90,Victoria Village,43.732658,-79.3111892,Starbucks,43.728053,-79.294142,Coffee Shop
91,Victoria Village,43.732658,-79.3111892,Fit4Less,43.72566,-79.297823,Gym
92,Victoria Village,43.732658,-79.3111892,Subway,43.72280019353569,-79.30346538577851,Sandwich Place
93,Victoria Village,43.732658,-79.3111892,Tim Hortons,43.740555487928134,-79.32365275919437,Coffee Shop
94,Victoria Village,43.732658,-79.3111892,Petro-Canada,43.740871,-79.319768,Gas Station
95,Victoria Village,43.732658,-79.3111892,Value Village,43.726177913526385,-79.30281878706506,Thrift / Vintage Store
96,Victoria Village,43.732658,-79.3111892,Tim Hortons,43.7236297,-79.2989781,Coffee Shop
97,Victoria Village,43.732658,-79.3111892,KFC,43.74290836654114,-79.30796427681433,Fast Food Restaurant
98,Victoria Village,43.732658,-79.3111892,Popeyes Louisiana Kitchen,43.74301966965932,-79.31212753804235,Fried Chicken Joint
99,Victoria Village,43.732658,-79.3111892,Dollarama,43.742692,-79.313914,Discount Store
100,Victoria Village,43.732658,-79.3111892,Shoppers Drug Mart,43.724034,-79.300677,Pharmacy
101,Victoria Village,43.732658,-79.3111892,Subway,43.74165475436788,-79.3186868935801,Sandwich Place
102,Victoria Village,43.732658,-79.3111892,City Chevrolet Buick Cadillac GMC Ltd.,43.744454060134096,-79.31125247226667,Automotive Shop
103,Victoria Village,43.732658,-79.3111892,KFC,43.7247,-79.2987,Fast Food Restaurant
104,Victoria Village,43.732658,-79.3111892,William Ashley Sale,43.73869165253688,-79.3218825297586,Furniture / Home Store
105,Victoria Village,43.732658,-79.3111892,Tim Hortons,43.72657427061207,-79.29724790970795,Coffee Shop
106,Victoria Village,43.732658,-79.3111892,Sweeny Park,43.7370861,-79.3154547,Park
107,Victoria Village,43.732658,-79.3111892,A&W,43.726426,-79.29693,Fast Food Restaurant
108,Victoria Village,43.732658,-79.3111892,McDonald's,43.723535,-79.298792,Fast Food Restaurant
109,Victoria Village,43.732658,-79.3111892,Eglinton Ave E & Sloane Ave/Bermondsey Rd,43.726086,-79.31362,Intersection
110,Victoria Village,43.732658,-79.3111892,Pizza Nova,43.725823726352196,-79.31286041792907,Pizza Place
111,Victoria Village,43.732658,-79.3111892,Tim Hortons,43.7270816,-79.327143,Coffee Shop
112,Victoria Village,43.732658,-79.3111892,Valley Fields Family Restaurant,43.74145188427135,-79.3196334859321,Diner
113,Victoria Village,43.732658,-79.3111892,Surati Sweet Mart,43.7403724703111,-79.31551931600761,Indian Restaurant
114,Victoria Village,43.732658,-79.3111892,Eglinton Square Shopping Centre,43.72341286761563,-79.29961681365967,Shopping Mall
115,Victoria Village,43.732658,-79.3111892,Canadian Bible Society,43.741560191562755,-79.31469481503697,Bookstore
116,Victoria Village,43.732658,-79.3111892,North Beach Volleyball,43.737172694129306,-79.3236503411774,Volleyball Court
117,Victoria Village,43.732658,-79.3111892,Pizza Hut,43.72237022949396,-79.30300689561652,Pizza Place
118,Victoria Village,43.732658,-79.3111892,Avis Car Rental,43.740818,-79.319632,Rental Car Location
119,Victoria Village,43.732658,-79.3111892,McDonald's,43.7277439,-79.2959766,Fast Food Restaurant
120,Victoria Village,43.732658,-79.3111892,Mak euro deli,43.740743,-79.320836,Deli / Bodega
121,Victoria Village,43.732658,-79.3111892,Krudar Muay Thai,43.7409110660405,-79.32075741059353,Athletics & Sports
122,Victoria Village,43.732658,-79.3111892,Dollarama,43.74066160286836,-79.32129660949855,Discount Store
123,Victoria Village,43.732658,-79.3111892,Wildly Delicious Warehouse Sale,43.73579335429227,-79.32602822112943,Gourmet Shop
124,Victoria Village,43.732658,-79.3111892,Metro,43.724387423607254,-79.29822981357177,Supermarket
125,Victoria Village,43.732658,-79.3111892,Concorde Park Condo Gym,43.73083247207351,-79.32723190645657,Gym
126,Victoria Village,43.732658,-79.3111892,Extreme Fun Indoor Playground,43.720914,-79.312516,Playground
127,Victoria Village,43.732658,-79.3111892,Budget Car & Truck Rental,43.722739,-79.30233,Rental Car Location
128,Victoria Village,43.732658,-79.3111892,Joe Fresh,43.72566,-79.297823,Clothing Store
129,Victoria Village,43.732658,-79.3111892,Walking On A Cloud,43.72349,-79.300433,Shoe Store
130,Victoria Village,43.732658,-79.3111892,Marcheleos Marketplace,43.727623,-79.326415,Grocery Store
131,Victoria Village,43.732658,-79.3111892,GNC,43.72374802,-79.29982966666667,Supplement Shop
132,Victoria Village,43.732658,-79.3111892,Tim Hortons / Esso,43.740446973170236,-79.32416861639062,Coffee Shop
133,Victoria Village,43.732658,-79.3111892,Railside Road West and Lawrence Avenue East,43.740726,-79.324048,Intersection
134,Victoria Village,43.732658,-79.3111892,Foot Locker,43.72371587239214,-79.29923401555877,Shoe Store
135,Victoria Village,43.732658,-79.3111892,Manchu Wok,43.722842,-79.300604,Chinese Restaurant
136,Victoria Village,43.732658,-79.3111892,Motion (formerly Motion Specialties) - No Retail Showroom,43.744079,-79.318723,Medical Supply Store
137,Victoria Village,43.732658,-79.3111892,East Don Trail,43.734417,-79.328766,Trail
138,Victoria Village,43.732658,-79.3111892,Fitness Depot,43.719732920431674,-79.31401716097572,Sporting Goods Shop
139,Victoria Village,43.732658,-79.3111892,Burger King,43.725089,-79.298033,Fast Food Restaurant
140,Victoria Village,43.732658,-79.3111892,Hudson's Bay,43.722911059402804,-79.30078409642624,Department Store
141,Regent Park,43.66070560000001,-79.3604569,Regent Park Aquatic Centre,43.6606003130796,-79.36139162915349,Pool
142,Regent Park,43.66070560000001,-79.3604569,Sumach Espresso,43.65813540553308,-79.35951549011845,Coffee Shop
143,Regent Park,43.66070560000001,-79.3604569,Merchants of Green Coffee,43.659916,-79.353963,Coffee Shop
144,Regent Park,43.66070560000001,-79.3604569,Riverdale Park West,43.66604827676354,-79.36094117493359,Park
145,Regent Park,43.66070560000001,-79.3604569,Impact Kitchen,43.65636850543279,-79.35697968750694,Restaurant
146,Regent Park,43.66070560000001,-79.3604569,Daniels Spectrum,43.66013679276432,-79.36180783336452,Performing Arts Venue
147,Regent Park,43.66070560000001,-79.3604569,Sukhothai,43.658444465539525,-79.36568085121628,Thai Restaurant
148,Regent Park,43.66070560000001,-79.3604569,Thai To Go,43.663418,-79.36071,Thai Restaurant
149,Regent Park,43.66070560000001,-79.3604569,House on Parliament,43.663645704974314,-79.36785378722945,Gastropub
150,Regent Park,43.66070560000001,-79.3604569,Dark Horse Espresso Bar,43.65849807585409,-79.35235639621163,Coffee Shop
151,Regent Park,43.66070560000001,-79.3604569,Riverdale Farm,43.66685035126636,-79.36137564770476,Farm
152,Regent Park,43.66070560000001,-79.3604569,Underpass Park,43.65576361726024,-79.3548059463501,Park
153,Regent Park,43.66070560000001,-79.3604569,Corktown Common,43.655617799749734,-79.3562113397429,Park
154,Regent Park,43.66070560000001,-79.3604569,Dominion Pub and Kitchen,43.65691857501867,-79.35896684476664,Pub
155,Regent Park,43.66070560000001,-79.3604569,White Lily Diner,43.65867460038718,-79.35107379221633,Diner
156,Regent Park,43.66070560000001,-79.3604569,Tandem Coffee,43.65355870959944,-79.36180945913513,Coffee Shop
157,Regent Park,43.66070560000001,-79.3604569,Roselle Desserts,43.653446723052674,-79.3620167174383,Bakery
158,Regent Park,43.66070560000001,-79.3604569,Quad East,43.65868140211272,-79.35127335463245,Gym / Fitness Center
159,Regent Park,43.66070560000001,-79.3604569,The Broadview Hotel,43.6590599,-79.35003,Hotel
160,Regent Park,43.66070560000001,-79.3604569,The Epicure Shop,43.663964860964924,-79.36779540886938,Deli / Bodega
161,Regent Park,43.66070560000001,-79.3604569,Zakkushi ざっ串,43.663618353768534,-79.37067046949925,Japanese Restaurant
162,Regent Park,43.66070560000001,-79.3604569,Kingyo Toronto,43.66589495808371,-79.36841520638596,Japanese Restaurant
163,Regent Park,43.66070560000001,-79.3604569,Toronto Humane Society,43.65769802359708,-79.3565828808708,Animal Shelter
164,Regent Park,43.66070560000001,-79.3604569,Rooftop At Broadview Hotel,43.6591094703885,-79.35007412650944,Hotel Bar
165,Regent Park,43.66070560000001,-79.3604569,Souk Tabule,43.65375556880743,-79.35439006096168,Mediterranean Restaurant
166,Regent Park,43.66070560000001,-79.3604569,Ha Noi 3 Seasons,43.665578086017604,-79.3521527142361,Asian Restaurant
167,Regent Park,43.66070560000001,-79.3604569,Pet Valu,43.66420501339666,-79.36846012382637,Pet Store
168,Regent Park,43.66070560000001,-79.3604569,Labour Of Love,43.663907,-79.368822,Gift Shop
169,Regent Park,43.66070560000001,-79.3604569,The Irv Gastro Pub,43.663556,-79.370617,Gastropub
170,Regent Park,43.66070560000001,-79.3604569,Figs Breakfast & Lunch,43.65567455427388,-79.3645032892494,Breakfast Spot
171,Regent Park,43.66070560000001,-79.3604569,Pho House,43.66574006403083,-79.3514929027799,Vietnamese Restaurant
172,Regent Park,43.66070560000001,-79.3604569,Cooper Koo Family YMCA,43.65324910177244,-79.35800826343677,Distribution Center
173,Regent Park,43.66070560000001,-79.3604569,Riverdale Park East,43.66995145540962,-79.35549259185791,Park
174,Regent Park,43.66070560000001,-79.3604569,Tertulia,43.658744,-79.349276,Café
175,Regent Park,43.66070560000001,-79.3604569,Stout Irish Pub,43.66389071833622,-79.3690300810636,Pub
176,Regent Park,43.66070560000001,-79.3604569,Wong's Ice Cream + Store,43.665720828413036,-79.35124262662545,Ice Cream Shop
177,Regent Park,43.66070560000001,-79.3604569,Rooster Coffee,43.65189965670432,-79.36560912104514,Coffee Shop
178,Regent Park,43.66070560000001,-79.3604569,I’ll Be Seeing You,43.659249861543486,-79.34812146928077,Bar
179,Regent Park,43.66070560000001,-79.3604569,Boxcar Social,43.659722741351565,-79.34687077721378,Café
180,Regent Park,43.66070560000001,-79.3604569,Rooster Coffee House,43.669177107744204,-79.35313352914292,Café
181,Regent Park,43.66070560000001,-79.3604569,Kanpai Snack Bar,43.664330935948634,-79.36806503124257,Taiwanese Restaurant
182,Regent Park,43.66070560000001,-79.3604569,The Distillery Historic District,43.65024435658077,-79.35932278633118,Historic Site
183,Regent Park,43.66070560000001,-79.3604569,Ruby WatchCo.,43.65914910163365,-79.34916965901455,Restaurant
184,Regent Park,43.66070560000001,-79.3604569,Butter Chicken Factory,43.66707247004843,-79.36918422958169,Indian Restaurant
185,Regent Park,43.66070560000001,-79.3604569,Merryberry Cafe + Bistro,43.66663020301851,-79.36879184199822,Café
186,Regent Park,43.66070560000001,-79.3604569,Tung Hing Bakery,43.665178752123936,-79.35253082343527,Bakery
187,Regent Park,43.66070560000001,-79.3604569,Fusaro's,43.65334679826618,-79.36951731755141,Italian Restaurant
188,Regent Park,43.66070560000001,-79.3604569,Fair Trade Jewellery Co.,43.6653480241165,-79.36836240366654,Jewelry Store
189,Regent Park,43.66070560000001,-79.3604569,Distillery Sunday Market,43.650074989330655,-79.36183171318665,Farmers Market
190,Regent Park,43.66070560000001,-79.3604569,Royal Canadian Curling Club,43.65998933676023,-79.34955038817158,Curling Ice
191,Regent Park,43.66070560000001,-79.3604569,Cranberries,43.6678427705951,-79.36940687874281,Diner
192,Regent Park,43.66070560000001,-79.3604569,The Opera House,43.65890447141719,-79.34874429043093,Rock Club
193,Regent Park,43.66070560000001,-79.3604569,SOMA chocolatemaker,43.65062222570758,-79.35812684032683,Chocolate Shop
194,Regent Park,43.66070560000001,-79.3604569,Andrea's Gerrard St. Bakery,43.66586797202085,-79.35067098697503,Bakery
195,Regent Park,43.66070560000001,-79.3604569,Eastbound Brewing Company,43.65900780122884,-79.35024989233756,Brewery
196,Regent Park,43.66070560000001,-79.3604569,Arvo,43.64996280366945,-79.36144178325522,Coffee Shop
197,Regent Park,43.66070560000001,-79.3604569,La Carnita,43.65962580371511,-79.3473598770943,Taco Place
198,Regent Park,43.66070560000001,-79.3604569,Starbucks,43.651613,-79.364917,Coffee Shop
199,Regent Park,43.66070560000001,-79.3604569,Tabule,43.65973096534363,-79.3463408134466,Middle Eastern Restaurant
200,Regent Park,43.66070560000001,-79.3604569,ODIN Cafe + Bar,43.656738544928054,-79.35650305267754,Café
201,Regent Park,43.66070560000001,-79.3604569,LCBO,43.65098233828489,-79.36536081685296,Liquor Store
202,Regent Park,43.66070560000001,-79.3604569,F'Amelia,43.66753590663226,-79.36861331485827,Italian Restaurant
203,Regent Park,43.66070560000001,-79.3604569,Mangia and Bevi Resto-Bar,43.652249517927686,-79.36635530500347,Italian Restaurant
204,Regent Park,43.66070560000001,-79.3604569,Cabbagetown Brew,43.66692279890784,-79.36928929560437,Café
205,Regent Park,43.66070560000001,-79.3604569,Body Blitz Spa East,43.65473505045365,-79.35987433132891,Spa
206,Regent Park,43.66070560000001,-79.3604569,Murgatroid,43.66738149016019,-79.36931129229457,Restaurant
207,Regent Park,43.66070560000001,-79.3604569,Allan Gardens Conservatory,43.661915451854576,-79.3746870789171,Garden
208,Regent Park,43.66070560000001,-79.3604569,The Comrade,43.65934649817776,-79.34793199050331,Bar
209,Regent Park,43.66070560000001,-79.3604569,Chew Chew's Diner,43.66350438663724,-79.37223072274612,Diner
210,Regent Park,43.66070560000001,-79.3604569,The Black Canary Espresso Bar,43.651868733003134,-79.36850642387674,Café
211,Regent Park,43.66070560000001,-79.3604569,Allan Gardens,43.661891653452926,-79.37412858009338,Botanical Garden
212,Regent Park,43.66070560000001,-79.3604569,St John's Bakery,43.66033530315765,-79.35047712257966,Bakery
213,Regent Park,43.66070560000001,-79.3604569,The George Street Diner,43.65297,-79.371467,Diner
214,Regent Park,43.66070560000001,-79.3604569,The Aviary,43.65363394725125,-79.35466212072043,Pub
215,Regent Park,43.66070560000001,-79.3604569,The Yoga Lounge,43.65551522261721,-79.36495542526245,Yoga Studio
216,Regent Park,43.66070560000001,-79.3604569,Cacao 70,43.650066694561666,-79.36072263183006,Dessert Shop
217,Regent Park,43.66070560000001,-79.3604569,Young Centre for the Performing Arts,43.65082466432163,-79.35759324240415,Performing Arts Venue
218,Regent Park,43.66070560000001,-79.3604569,The Grand Hotel & Suites Toronto,43.65644901207743,-79.3741100180102,Hotel
219,Regent Park,43.66070560000001,-79.3604569,Page One Cafe,43.65777161112601,-79.3760725691681,Café
220,Regent Park,43.66070560000001,-79.3604569,Cluny Bistro & Boulangerie,43.650565116074695,-79.35784287026658,French Restaurant
221,Regent Park,43.66070560000001,-79.3604569,Batifole,43.666651293534635,-79.34726110140059,French Restaurant
222,Regent Park,43.66070560000001,-79.3604569,NEO COFFEE BAR,43.65070234158804,-79.36925939681731,Coffee Shop
223,Regent Park,43.66070560000001,-79.3604569,Balzac's Coffee,43.649797141476185,-79.35914199644303,Coffee Shop
224,Regent Park,43.66070560000001,-79.3604569,Schnitzel Queen,43.65423906004429,-79.37053284604036,German Restaurant
225,Regent Park,43.66070560000001,-79.3604569,Fahrenheit Coffee,43.65238358726612,-79.37271903848271,Coffee Shop
226,Regent Park,43.66070560000001,-79.3604569,Mystic Muffin,43.652483550499326,-79.37265472845176,Middle Eastern Restaurant
227,Regent Park,43.66070560000001,-79.3604569,Spotify,43.64991916262922,-79.35886149447444,Tech Startup
228,Regent Park,43.66070560000001,-79.3604569,Farside,43.66568078247237,-79.35174180554331,Bar
229,Regent Park,43.66070560000001,-79.3604569,Alumnae Theatre,43.65275554626444,-79.36475283805089,Theater
230,Regent Park,43.66070560000001,-79.3604569,The Cannonball,43.65829890360228,-79.35239704706817,Coffee Shop
231,Regent Park,43.66070560000001,-79.3604569,Hi-Lo,43.65925400300397,-79.34803521371407,Dive Bar
232,Regent Park,43.66070560000001,-79.3604569,Berkeley Church,43.65512324174501,-79.36587330410705,Event Space
233,Regent Park,43.66070560000001,-79.3604569,Carbon Computing,43.65945700245283,-79.34753810168428,Electronics Store
234,Regent Park,43.66070560000001,-79.3604569,Pho Que Ling,43.666048433542066,-79.34924136659451,Vietnamese Restaurant
235,Regent Park,43.66070560000001,-79.3604569,El Catrin,43.650600737116996,-79.35892024942333,Mexican Restaurant
236,Regent Park,43.66070560000001,-79.3604569,Green Earth Vegetarian,43.66589,-79.35265,Vegetarian / Vegan Restaurant
237,Regent Park,43.66070560000001,-79.3604569,Wellesley Park,43.6696487958367,-79.3621551990509,Park
238,Regent Park,43.66070560000001,-79.3604569,Mercedes-Benz Downtown,43.66143119502613,-79.35658517368444,Auto Dealership
239,Regent Park,43.66070560000001,-79.3604569,Mi Mi Restaurant,43.66629336492295,-79.34907864247218,Vietnamese Restaurant
240,Regent Park,43.66070560000001,-79.3604569,GEORGE Restaurant,43.65334645635036,-79.3744449051126,Restaurant
241, Harbourfront,43.64008010000001,-79.3801495,Harbour Square Park,43.63925269130776,-79.37839547902978,Park
242, Harbourfront,43.64008010000001,-79.3801495,Lake Ontario,43.63894493157648,-79.37966465950012,Lake
243, Harbourfront,43.64008010000001,-79.3801495,Harbourfront,43.639525632239106,-79.38068838052389,Neighborhood
244, Harbourfront,43.64008010000001,-79.3801495,Miku,43.64137436,-79.37753063,Japanese Restaurant
245, Harbourfront,43.64008010000001,-79.3801495,Harbourfront Centre,43.63855578926675,-79.38319016270458,Performing Arts Venue
246, Harbourfront,43.64008010000001,-79.3801495,Natrel Pond/Rink,43.6384313677662,-79.38252754335107,Skating Rink
247, Harbourfront,43.64008010000001,-79.3801495,BeaverTails,43.639736,-79.380068,Dessert Shop
248, Harbourfront,43.64008010000001,-79.3801495,Roundhouse Park,43.64174513889102,-79.38427882922346,Park
249, Harbourfront,43.64008010000001,-79.3801495,iQ Food Co,43.642851,-79.382081,Salad Place
250, Harbourfront,43.64008010000001,-79.3801495,Real Sports Apparel,43.64285984835777,-79.38018363195047,Sporting Goods Shop
251, Harbourfront,43.64008010000001,-79.3801495,Delta Hotels by Marriott Toronto,43.6428819,-79.3839491,Hotel
252, Harbourfront,43.64008010000001,-79.3801495,Maple Leaf Square,43.64292522840183,-79.38089182467687,Plaza
253, Harbourfront,43.64008010000001,-79.3801495,Pearl Harbourfront,43.63815654013541,-79.38068763743328,Chinese Restaurant
254, Harbourfront,43.64008010000001,-79.3801495,Boxcar Social,43.63831906511549,-79.38246311921247,Café
255, Harbourfront,43.64008010000001,-79.3801495,Scotiabank Arena,43.64344617535107,-79.37903988889991,Basketball Stadium
256, Harbourfront,43.64008010000001,-79.3801495,The Power Plant,43.63827200397285,-79.38199390946676,Art Gallery
257, Harbourfront,43.64008010000001,-79.3801495,Ontario Square,43.63937829745867,-79.38209598496967,Plaza
258, Harbourfront,43.64008010000001,-79.3801495,Fleck Dance Theater,43.638300366812686,-79.3804699399247,Dance Studio
259, Harbourfront,43.64008010000001,-79.3801495,Union Pearson Express,43.64436200658875,-79.38319927907953,Train Station
260, Harbourfront,43.64008010000001,-79.3801495,Longo's Maple Leaf Square,43.64251679604069,-79.38139301653129,Supermarket
261, Harbourfront,43.64008010000001,-79.3801495,Steam Whistle Brewing,43.641751628677554,-79.38708862583252,Brewery
262, Harbourfront,43.64008010000001,-79.3801495,Air Canada Club,43.643224100030416,-79.37915938219528,Lounge
263, Harbourfront,43.64008010000001,-79.3801495,Ripley's Aquarium of Canada,43.642104321965796,-79.38625159146146,Aquarium
264, Harbourfront,43.64008010000001,-79.3801495,Sharetea,43.640175967763966,-79.37960567018246,Bubble Tea Shop
265, Harbourfront,43.64008010000001,-79.3801495,Lick It Gelato,43.63925633222479,-79.38464951914256,Ice Cream Shop
266, Harbourfront,43.64008010000001,-79.3801495,Evviva Restaurant,43.64157991761808,-79.38345644030795,Deli / Bodega
267, Harbourfront,43.64008010000001,-79.3801495,CN Tower,43.642277432828145,-79.38705542070056,Monument / Landmark
268, Harbourfront,43.64008010000001,-79.3801495,Sky Pod,43.64256148814412,-79.38703777833165,Scenic Lookout
269, Harbourfront,43.64008010000001,-79.3801495,TELUS,43.64331243103257,-79.38099939294844,IT Services
270, Harbourfront,43.64008010000001,-79.3801495,Delta Toronto Club Lounge,43.64308454373067,-79.38388489051405,Roof Deck
271, Harbourfront,43.64008010000001,-79.3801495,Mos Mos,43.64163954520267,-79.3775517786762,Coffee Shop
272, Harbourfront,43.64008010000001,-79.3801495,Pilot Coffee Roasters,43.64501814464698,-79.3804150931199,Coffee Shop
273, Harbourfront,43.64008010000001,-79.3801495,Joe Bird,43.6382035241723,-79.38035466343936,Fried Chicken Joint
274, Harbourfront,43.64008010000001,-79.3801495,Rogers Centre,43.64175329733295,-79.38714957057036,Baseball Stadium
275, Harbourfront,43.64008010000001,-79.3801495,HTO Park,43.63794857171933,-79.38781965601113,Park
276, Harbourfront,43.64008010000001,-79.3801495,The Fairmont Royal York,43.64544914616651,-79.3815076529019,Hotel
277, Harbourfront,43.64008010000001,-79.3801495,Aroma Espresso Bar,43.6423209103846,-79.38374932648954,Café
278, Harbourfront,43.64008010000001,-79.3801495,WestJet Flight Deck,43.641038,-79.389092,Baseball Stadium
279, Harbourfront,43.64008010000001,-79.3801495,Le Germain Hotel,43.64312502979691,-79.38091770864038,Hotel
280, Harbourfront,43.64008010000001,-79.3801495,WVRST,43.64496809087762,-79.38137631843854,Beer Bar
281, Harbourfront,43.64008010000001,-79.3801495,Balzac's Coffee,43.644372584148364,-79.38306470027423,Coffee Shop
282, Harbourfront,43.64008010000001,-79.3801495,Canoe,43.647452066183476,-79.38132001815676,Restaurant
283, Harbourfront,43.64008010000001,-79.3801495,Y Yoga,43.638533613620204,-79.38915754933562,Yoga Studio
284, Harbourfront,43.64008010000001,-79.3801495,The Ritz-Carlton,43.645330157595886,-79.38708901405334,Hotel
285, Harbourfront,43.64008010000001,-79.3801495,Amsterdam Brewhouse,43.63812210550607,-79.38480300808894,Brewery
286, Harbourfront,43.64008010000001,-79.3801495,Walrus Pub & Beer Hall,43.64737470920577,-79.37951515363918,Pub
287, Harbourfront,43.64008010000001,-79.3801495,RS - Real Sports,43.64255846521551,-79.37996506690979,Sports Bar
288, Harbourfront,43.64008010000001,-79.3801495,The Keg Steakhouse + Bar - Esplanade,43.64671207408793,-79.37476761639118,Restaurant
289, Harbourfront,43.64008010000001,-79.3801495,LCBO,43.64294379917171,-79.37243989044406,Liquor Store
290, Harbourfront,43.64008010000001,-79.3801495,Ray Bay,43.642323,-79.38593,Aquarium
291, Harbourfront,43.64008010000001,-79.3801495,Hockey Hall Of Fame (Hockey Hall of Fame),43.646974451431056,-79.37732323942681,Museum
292, Harbourfront,43.64008010000001,-79.3801495,Labatt Breweries of Canada,43.63828189167837,-79.38037771487727,Brewery
293, Harbourfront,43.64008010000001,-79.3801495,Tim Hortons,43.6387246,-79.3863403,Coffee Shop
294, Harbourfront,43.64008010000001,-79.3801495,Queens Quay / Lakeshore Trail,43.637473953249064,-79.38939209154272,Track
295, Harbourfront,43.64008010000001,-79.3801495,Mos Mos Coffee,43.64815919753501,-79.37874450467258,Café
296, Harbourfront,43.64008010000001,-79.3801495,Pie Bar,43.63817355603517,-79.38054644461133,Pizza Place
297, Harbourfront,43.64008010000001,-79.3801495,Roy Thomson Hall,43.6465886970634,-79.38597899374354,Concert Hall
298, Harbourfront,43.64008010000001,-79.3801495,TOCA,43.64543117726125,-79.38705858895491,Italian Restaurant
299, Harbourfront,43.64008010000001,-79.3801495,Chotto Matte,43.646473,-79.378782,Japanese Restaurant
300, Harbourfront,43.64008010000001,-79.3801495,Fresh On Front,43.64781466405137,-79.3744527618627,Vegetarian / Vegan Restaurant
301, Harbourfront,43.64008010000001,-79.3801495,Harbourfront Wavedecks,43.6389104293985,-79.38485064893273,Scenic Lookout
302, Harbourfront,43.64008010000001,-79.3801495,Equinox Bay Street,43.64809974034856,-79.37998869411526,Gym
303, Harbourfront,43.64008010000001,-79.3801495,Byblos Toronto,43.647615054171766,-79.3883810317138,Mediterranean Restaurant
304, Harbourfront,43.64008010000001,-79.3801495,Starbucks,43.646731,-79.383951,Coffee Shop
305, Harbourfront,43.64008010000001,-79.3801495,"The Westin Harbour Castle, Toronto",43.64121139206991,-79.37574863433838,Hotel
306, Harbourfront,43.64008010000001,-79.3801495,Enwave Theatre,43.63863608843057,-79.38229942602973,Theater
307, Harbourfront,43.64008010000001,-79.3801495,TIFF Bell Lightbox,43.64634159071232,-79.39006297129853,Movie Theater
308, Harbourfront,43.64008010000001,-79.3801495,Pai,43.64792310735613,-79.38857932631602,Thai Restaurant
309, Harbourfront,43.64008010000001,-79.3801495,Loch & Quay,43.638267,-79.390187,Seafood Restaurant
310, Harbourfront,43.64008010000001,-79.3801495,Bymark,43.647217284018005,-79.38125188166379,Restaurant
311, Harbourfront,43.64008010000001,-79.3801495,Berczy Park,43.64804835388851,-79.3751722909452,Park
312, Harbourfront,43.64008010000001,-79.3801495,Princess Of Wales Theatre,43.64654315405365,-79.38910030187289,Theater
313, Harbourfront,43.64008010000001,-79.3801495,Superclub,43.63976132108351,-79.39114334001921,Gym
314, Harbourfront,43.64008010000001,-79.3801495,Adelaide Club Toronto,43.64927944291712,-79.38192123284551,Gym / Fitness Center
315, Harbourfront,43.64008010000001,-79.3801495,Hogtown Smoke,43.64928693557788,-79.37468932637938,Food Truck
316, Harbourfront,43.64008010000001,-79.3801495,Soho House Toronto,43.64873430659662,-79.38654117564838,Speakeasy
317, Harbourfront,43.64008010000001,-79.3801495,Pizzeria Libretto,43.64833354686235,-79.38511050184168,Pizza Place
318, Harbourfront,43.64008010000001,-79.3801495,Ki Modern Japanese + Bar,43.647223,-79.3793738,Japanese Restaurant
319, Harbourfront,43.64008010000001,-79.3801495,St. Lawrence Market (South Building),43.64874320223593,-79.37159697627527,Farmers Market
320, Harbourfront,43.64008010000001,-79.3801495,Shangri-La Toronto,43.64912919417502,-79.3865566853963,Hotel
321, Harbourfront,43.64008010000001,-79.3801495,Brick Street Bakery,43.6488151631615,-79.38060468610949,Bakery
322, Harbourfront,43.64008010000001,-79.3801495,The Second City,43.64563251724917,-79.39122468317156,Comedy Club
323, Harbourfront,43.64008010000001,-79.3801495,Subway,43.6397080530486,-79.38344130418051,Sandwich Place
324, Harbourfront,43.64008010000001,-79.3801495,Starbucks,43.637735310079506,-79.39220286985542,Coffee Shop
325, Harbourfront,43.64008010000001,-79.3801495,Pilot Coffee Roasters,43.648835391245896,-79.3809358125033,Coffee Shop
326, Harbourfront,43.64008010000001,-79.3801495,Toronto Music Garden,43.636901770652464,-79.39393331122407,Garden
327, Harbourfront,43.64008010000001,-79.3801495,Maman,43.64830873804684,-79.38225333898805,Café
328, Harbourfront,43.64008010000001,-79.3801495,Gonoe Sushi Japanese Restaurant,43.63901430970685,-79.38591360078077,Sushi Restaurant
329, Harbourfront,43.64008010000001,-79.3801495,Beerbistro,43.64941904378835,-79.37723726034164,Gastropub
330, Harbourfront,43.64008010000001,-79.3801495,Meridian Hall,43.646292124205594,-79.37602179505662,Concert Hall
331, Harbourfront,43.64008010000001,-79.3801495,Cafe Landwer,43.64875349932059,-79.3853673607289,Café
332, Harbourfront,43.64008010000001,-79.3801495,Cactus Club Cafe,43.6495520142626,-79.38167072512041,American Restaurant
333, Harbourfront,43.64008010000001,-79.3801495,Dineen Coffee,43.650497,-79.378765,Café
334, Harbourfront,43.64008010000001,-79.3801495,Dog Fountain,43.64799795147863,-79.37536096948996,Fountain
335, Harbourfront,43.64008010000001,-79.3801495,Akira Back,43.645375789305994,-79.39206284397356,Japanese Restaurant
336, Harbourfront,43.64008010000001,-79.3801495,Spadina Wave Deck,43.63769152068098,-79.39177640357569,Scenic Lookout
337, Harbourfront,43.64008010000001,-79.3801495,St. Lawrence Market (North Building),43.64879290161719,-79.37194535820687,Farmers Market
338, Harbourfront,43.64008010000001,-79.3801495,Alexandro's World Famous Gyros,43.6416627086796,-79.3752137736969,Greek Restaurant
339, Harbourfront,43.64008010000001,-79.3801495,Kellys Landing,43.645081624120245,-79.38304962483915,Restaurant
340, Harbourfront,43.64008010000001,-79.3801495,Royal Alexandra Theatre,43.647255,-79.38753,Theater
341,Lawrence Manor,43.72207879999999,-79.4375067,United Bakers Dairy Restaurant,43.7200428099426,-79.43109456040295,Breakfast Spot
342,Lawrence Manor,43.72207879999999,-79.4375067,Nordstrom,43.726082,-79.4494495,Clothing Store
343,Lawrence Manor,43.72207879999999,-79.4375067,UNIQLO ユニクロ,43.72644624289554,-79.450564443079,Clothing Store
344,Lawrence Manor,43.72207879999999,-79.4375067,Yorkdale Shopping Centre,43.72548184266099,-79.45273563264436,Shopping Mall
345,Lawrence Manor,43.72207879999999,-79.4375067,Crate & Barrel,43.72658365,-79.45266115,Furniture / Home Store
346,Lawrence Manor,43.72207879999999,-79.4375067,The Lego Store,43.725146367972975,-79.45297438060997,Toy / Game Store
347,Lawrence Manor,43.72207879999999,-79.4375067,Godiva Chocolatier,43.7259875,-79.4542377,Chocolate Shop
348,Lawrence Manor,43.72207879999999,-79.4375067,Ted Baker London,43.72451893248142,-79.45270961233477,Clothing Store
349,Lawrence Manor,43.72207879999999,-79.4375067,RH Courtyard Café,43.7248736,-79.4555364,Restaurant
350,Lawrence Manor,43.72207879999999,-79.4375067,Holt Renfrew,43.72462470639476,-79.45166362398024,Clothing Store
351,Lawrence Manor,43.72207879999999,-79.4375067,Tiffany & Co.,43.724858,-79.452096,Jewelry Store
352,Lawrence Manor,43.72207879999999,-79.4375067,Cineplex Cinemas,43.72699993064192,-79.4512895821115,Movie Theater
353,Lawrence Manor,43.72207879999999,-79.4375067,SEPHORA,43.725469563870774,-79.45199960939351,Cosmetics Shop
354,Lawrence Manor,43.72207879999999,-79.4375067,Apple Yorkdale,43.7242617,-79.4531034,Electronics Store
355,Lawrence Manor,43.72207879999999,-79.4375067,Indigo,43.727006161344995,-79.45188256634867,Bookstore
356,Lawrence Manor,43.72207879999999,-79.4375067,Williams-Sonoma,43.72549729371171,-79.45180914321543,Kitchen Supply Store
357,Lawrence Manor,43.72207879999999,-79.4375067,MAC Cosmetics,43.72624153205319,-79.45219646990586,Cosmetics Shop
358,Lawrence Manor,43.72207879999999,-79.4375067,Yogen Früz,43.72698291346063,-79.4516734445689,Frozen Yogurt Shop
359,Lawrence Manor,43.72207879999999,-79.4375067,Starbucks,43.725278,-79.449666,Coffee Shop
360,Lawrence Manor,43.72207879999999,-79.4375067,Zara,43.72581378585372,-79.45098261172777,Clothing Store
361,Lawrence Manor,43.72207879999999,-79.4375067,John Varvatos,43.724428411509365,-79.4536886988404,Men's Store
362,Lawrence Manor,43.72207879999999,-79.4375067,Jimmy The Greek,43.726137741274506,-79.45210637051972,Greek Restaurant
363,Lawrence Manor,43.72207879999999,-79.4375067,Gryfe's Bagel Bakery,43.72706236914395,-79.43158677774109,Bagel Shop
364,Lawrence Manor,43.72207879999999,-79.4375067,American Eagle Store,43.72568927667549,-79.45255283928681,Clothing Store
365,Lawrence Manor,43.72207879999999,-79.4375067,Levi's Store,43.72518987998329,-79.45326085451003,Clothing Store
366,Lawrence Manor,43.72207879999999,-79.4375067,What-a-bagel,43.729148289015136,-79.43195576972572,Bagel Shop
367,Lawrence Manor,43.72207879999999,-79.4375067,H&M,43.7263812,-79.45107999999999,Clothing Store
368,Lawrence Manor,43.72207879999999,-79.4375067,Shoppers Drug Mart,43.724775,-79.45538,Pharmacy
369,Lawrence Manor,43.72207879999999,-79.4375067,Disney store,43.725402,-79.450654,Toy / Game Store
370,Lawrence Manor,43.72207879999999,-79.4375067,lululemon,43.7256858,-79.4502545,Clothing Store
371,Lawrence Manor,43.72207879999999,-79.4375067,Restoration Hardware,43.7249417,-79.4556268,Furniture / Home Store
372,Lawrence Manor,43.72207879999999,-79.4375067,Louis Vuitton Toronto Holt Renfrew Yorkdale,43.72485940446512,-79.45147806645349,Leather Goods Store
373,Lawrence Manor,43.72207879999999,-79.4375067,Ladurée,43.724685,-79.454151,Dessert Shop
374,Lawrence Manor,43.72207879999999,-79.4375067,Villa Madina,43.724684,-79.454172,Mediterranean Restaurant
375,Lawrence Manor,43.72207879999999,-79.4375067,JOEY,43.724131425481275,-79.45404167853917,American Restaurant
376,Lawrence Manor,43.72207879999999,-79.4375067,Dine On 3,43.725890608726935,-79.452287937104,Food Court
377,Lawrence Manor,43.72207879999999,-79.4375067,Dr Laffa On The Go,43.71812671714667,-79.42941895940547,Middle Eastern Restaurant
378,Lawrence Manor,43.72207879999999,-79.4375067,Grodzinski Bakery,43.72773841150353,-79.43159266924582,Bakery
379,Lawrence Manor,43.72207879999999,-79.4375067,AllSaints,43.72437763616194,-79.45364623619574,Clothing Store
380,Lawrence Manor,43.72207879999999,-79.4375067,Burberry,43.7252365,-79.4521221,Boutique
381,Lawrence Manor,43.72207879999999,-79.4375067,Tory Burch,43.7251379,-79.452086,Women's Store
382,Lawrence Manor,43.72207879999999,-79.4375067,La Mexicana,43.725734406620205,-79.43112503100639,Mexican Restaurant
383,Lawrence Manor,43.72207879999999,-79.4375067,SportChek,43.72699618772995,-79.45159476443713,Sporting Goods Shop
384,Lawrence Manor,43.72207879999999,-79.4375067,Papyrus,43.7257252,-79.45258805,Gift Shop
385,Lawrence Manor,43.72207879999999,-79.4375067,Chapters,43.727127,-79.451858,Bookstore
386,Lawrence Manor,43.72207879999999,-79.4375067,Anthropologie,43.72445560536634,-79.45278705108937,Women's Store
387,Lawrence Manor,43.72207879999999,-79.4375067,The Cheesecake Factory,43.72629712488562,-79.45426225662231,American Restaurant
388,Lawrence Manor,43.72207879999999,-79.4375067,Second Cup,43.71321621459695,-79.43199466756658,Coffee Shop
389,Lawrence Manor,43.72207879999999,-79.4375067,Yorkdale Food Court,43.72593970794716,-79.45222775066644,Food Court
390,Lawrence Manor,43.72207879999999,-79.4375067,Topman,43.725752830163216,-79.45496511150792,Clothing Store
391,Lawrence Manor,43.72207879999999,-79.4375067,Starbucks,43.72567,-79.452168,Coffee Shop
392,Lawrence Manor,43.72207879999999,-79.4375067,Rainbow Sushi,43.71809599324529,-79.42956472273946,Sushi Restaurant
393,Lawrence Manor,43.72207879999999,-79.4375067,Harry Rosen,43.72519597305966,-79.45399822742344,Men's Store
394,Lawrence Manor,43.72207879999999,-79.4375067,PetSmart,43.7165437,-79.4459263,Pet Store
395,Lawrence Manor,43.72207879999999,-79.4375067,Starbucks,43.71571314953408,-79.44371729268211,Coffee Shop
396,Lawrence Manor,43.72207879999999,-79.4375067,Sea-Hi,43.731630356042174,-79.43301375635122,Chinese Restaurant
397,Lawrence Manor,43.72207879999999,-79.4375067,TD Canada Trust,43.71959476063143,-79.43279877315945,Bank
398,Lawrence Manor,43.72207879999999,-79.4375067,Victoria's Secret,43.72585526240302,-79.45401330099416,Lingerie Store
399,Lawrence Manor,43.72207879999999,-79.4375067,Shoppers Drug Mart,43.720349,-79.430194,Pharmacy
400,Lawrence Manor,43.72207879999999,-79.4375067,Tim Hortons,43.7163463,-79.4468676,Coffee Shop
401,Lawrence Manor,43.72207879999999,-79.4375067,Subway,43.72042774444331,-79.42955633385043,Sandwich Place
402,Lawrence Manor,43.72207879999999,-79.4375067,Pizza Hut,43.72697448730469,-79.43163299560547,Pizza Place
403,Lawrence Manor,43.72207879999999,-79.4375067,Metro,43.71957472930004,-79.43083218191845,Supermarket
404,Lawrence Manor,43.72207879999999,-79.4375067,TD Canada Trust,43.71221158421207,-79.42823254003707,Bank
405,Lawrence Manor,43.72207879999999,-79.4375067,Tim Hortons,43.7197485,-79.4309222,Coffee Shop
406,Lawrence Manor,43.72207879999999,-79.4375067,Winners,43.7193869,-79.4307956,Department Store
407,Lawrence Manor,43.72207879999999,-79.4375067,KFC,43.7166,-79.447,Fast Food Restaurant
408,Lawrence Manor,43.72207879999999,-79.4375067,Starbucks,43.73415,-79.43301,Coffee Shop
409,Lawrence Manor,43.72207879999999,-79.4375067,Petro-Canada,43.715264,-79.44683,Gas Station
410,Lawrence Manor,43.72207879999999,-79.4375067,Shoppers Drug Mart,43.71265154175745,-79.42803977796558,Pharmacy
411,Lawrence Manor,43.72207879999999,-79.4375067,Tov-Li,43.72920503909014,-79.43202160765792,Pizza Place
412,Lawrence Manor,43.72207879999999,-79.4375067,7-Eleven,43.7326108,-79.4324944,Convenience Store
413,Lawrence Manor,43.72207879999999,-79.4375067,Wellwise by Shoppers Drug Mart,43.719352,-79.432631,Doctor's Office
414,Lawrence Manor,43.72207879999999,-79.4375067,Fortinos,43.716656,-79.447257,Grocery Store
415,Lawrence Manor,43.72207879999999,-79.4375067,McDonald's,43.717134,-79.44736,Fast Food Restaurant
416,Lawrence Manor,43.72207879999999,-79.4375067,Pantry,43.728127,-79.431968,Café
417,Lawrence Manor,43.72207879999999,-79.4375067,Marshalls,43.7167948331759,-79.4462692737579,Department Store
418,Lawrence Manor,43.72207879999999,-79.4375067,Harbour Star Boat Cruise,43.71811392837763,-79.45023467228003,Moving Target
419, Lawrence Heights,43.7227784,-79.45093320000002,Yorkdale Shopping Centre,43.72548184266099,-79.45273563264436,Shopping Mall
420, Lawrence Heights,43.7227784,-79.45093320000002,Nordstrom,43.726082,-79.4494495,Clothing Store
421, Lawrence Heights,43.7227784,-79.45093320000002,The Lego Store,43.725146367972975,-79.45297438060997,Toy / Game Store
422, Lawrence Heights,43.7227784,-79.45093320000002,UNIQLO ユニクロ,43.72644624289554,-79.450564443079,Clothing Store
423, Lawrence Heights,43.7227784,-79.45093320000002,Crate & Barrel,43.72658365,-79.45266115,Furniture / Home Store
424, Lawrence Heights,43.7227784,-79.45093320000002,RH Courtyard Café,43.7248736,-79.4555364,Restaurant
425, Lawrence Heights,43.7227784,-79.45093320000002,Apple Yorkdale,43.7242617,-79.4531034,Electronics Store
426, Lawrence Heights,43.7227784,-79.45093320000002,Ted Baker London,43.72451893248142,-79.45270961233477,Clothing Store
427, Lawrence Heights,43.7227784,-79.45093320000002,Godiva Chocolatier,43.7259875,-79.4542377,Chocolate Shop
428, Lawrence Heights,43.7227784,-79.45093320000002,Tiffany & Co.,43.724858,-79.452096,Jewelry Store
429, Lawrence Heights,43.7227784,-79.45093320000002,Holt Renfrew,43.72462470639476,-79.45166362398024,Clothing Store
430, Lawrence Heights,43.7227784,-79.45093320000002,SEPHORA,43.725469563870774,-79.45199960939351,Cosmetics Shop
431, Lawrence Heights,43.7227784,-79.45093320000002,John Varvatos,43.724428411509365,-79.4536886988404,Men's Store
432, Lawrence Heights,43.7227784,-79.45093320000002,Williams-Sonoma,43.72549729371171,-79.45180914321543,Kitchen Supply Store
433, Lawrence Heights,43.7227784,-79.45093320000002,Indigo,43.727006161344995,-79.45188256634867,Bookstore
434, Lawrence Heights,43.7227784,-79.45093320000002,MAC Cosmetics,43.72624153205319,-79.45219646990586,Cosmetics Shop
435, Lawrence Heights,43.7227784,-79.45093320000002,Cineplex Cinemas,43.72699993064192,-79.4512895821115,Movie Theater
436, Lawrence Heights,43.7227784,-79.45093320000002,Shoppers Drug Mart,43.724775,-79.45538,Pharmacy
437, Lawrence Heights,43.7227784,-79.45093320000002,Yogen Früz,43.72698291346063,-79.4516734445689,Frozen Yogurt Shop
438, Lawrence Heights,43.7227784,-79.45093320000002,Levi's Store,43.72518987998329,-79.45326085451003,Clothing Store
439, Lawrence Heights,43.7227784,-79.45093320000002,Restoration Hardware,43.7249417,-79.4556268,Furniture / Home Store
440, Lawrence Heights,43.7227784,-79.45093320000002,Zara,43.72581378585372,-79.45098261172777,Clothing Store
441, Lawrence Heights,43.7227784,-79.45093320000002,Hudson's Bay,43.72618961354078,-79.45533454666722,Department Store
442, Lawrence Heights,43.7227784,-79.45093320000002,Starbucks,43.725278,-79.449666,Coffee Shop
443, Lawrence Heights,43.7227784,-79.45093320000002,Jimmy The Greek,43.726137741274506,-79.45210637051972,Greek Restaurant
444, Lawrence Heights,43.7227784,-79.45093320000002,American Eagle Store,43.72568927667549,-79.45255283928681,Clothing Store
445, Lawrence Heights,43.7227784,-79.45093320000002,JOEY,43.724131425481275,-79.45404167853917,American Restaurant
446, Lawrence Heights,43.7227784,-79.45093320000002,Ladurée,43.724685,-79.454151,Dessert Shop
447, Lawrence Heights,43.7227784,-79.45093320000002,Villa Madina,43.724684,-79.454172,Mediterranean Restaurant
448, Lawrence Heights,43.7227784,-79.45093320000002,The Burger's Priest,43.7207893797841,-79.45676631978057,Fast Food Restaurant
449, Lawrence Heights,43.7227784,-79.45093320000002,Louis Vuitton Toronto Holt Renfrew Yorkdale,43.72485940446512,-79.45147806645349,Leather Goods Store
450, Lawrence Heights,43.7227784,-79.45093320000002,AllSaints,43.72437763616194,-79.45364623619574,Clothing Store
451, Lawrence Heights,43.7227784,-79.45093320000002,Disney store,43.725402,-79.450654,Toy / Game Store
452, Lawrence Heights,43.7227784,-79.45093320000002,H&M,43.7263812,-79.45107999999999,Clothing Store
453, Lawrence Heights,43.7227784,-79.45093320000002,Krystos,43.71851626753137,-79.45585522412502,Greek Restaurant
454, Lawrence Heights,43.7227784,-79.45093320000002,Dine On 3,43.725890608726935,-79.452287937104,Food Court
455, Lawrence Heights,43.7227784,-79.45093320000002,lululemon,43.7256858,-79.4502545,Clothing Store
456, Lawrence Heights,43.7227784,-79.45093320000002,Yuki Japanese Restaurant,43.72060971477955,-79.45611946822187,Sushi Restaurant
457, Lawrence Heights,43.7227784,-79.45093320000002,Burberry,43.7252365,-79.4521221,Boutique
458, Lawrence Heights,43.7227784,-79.45093320000002,Mary Brown's Famous Chicken,43.71830860417442,-79.45570632677568,Fried Chicken Joint
459, Lawrence Heights,43.7227784,-79.45093320000002,Tory Burch,43.7251379,-79.452086,Women's Store
460, Lawrence Heights,43.7227784,-79.45093320000002,Anthropologie,43.72445560536634,-79.45278705108937,Women's Store
461, Lawrence Heights,43.7227784,-79.45093320000002,LCBO,43.73271669596289,-79.45471700811727,Liquor Store
462, Lawrence Heights,43.7227784,-79.45093320000002,Popeyes Louisiana Kitchen,43.72247710118178,-79.45647214024791,Fried Chicken Joint
463, Lawrence Heights,43.7227784,-79.45093320000002,Costco,43.73090022835022,-79.4557174545216,Warehouse Store
464, Lawrence Heights,43.7227784,-79.45093320000002,Papyrus,43.7257252,-79.45258805,Gift Shop
465, Lawrence Heights,43.7227784,-79.45093320000002,Harvey's,43.71533697302975,-79.45539587874885,Restaurant
466, Lawrence Heights,43.7227784,-79.45093320000002,The Cheesecake Factory,43.72629712488562,-79.45426225662231,American Restaurant
467, Lawrence Heights,43.7227784,-79.45093320000002,Caffè Demetre,43.72017931839126,-79.45621855808365,Dessert Shop
468, Lawrence Heights,43.7227784,-79.45093320000002,SportChek,43.72699618772995,-79.45159476443713,Sporting Goods Shop
469, Lawrence Heights,43.7227784,-79.45093320000002,Topman,43.725752830163216,-79.45496511150792,Clothing Store
470, Lawrence Heights,43.7227784,-79.45093320000002,Harry Rosen,43.72519597305966,-79.45399822742344,Men's Store
471, Lawrence Heights,43.7227784,-79.45093320000002,Yorkdale Food Court,43.72593970794716,-79.45222775066644,Food Court
472, Lawrence Heights,43.7227784,-79.45093320000002,Chapters,43.727127,-79.451858,Bookstore
473, Lawrence Heights,43.7227784,-79.45093320000002,Starbucks,43.732211,-79.451843,Coffee Shop
474, Lawrence Heights,43.7227784,-79.45093320000002,Starbucks,43.72567,-79.452168,Coffee Shop
475, Lawrence Heights,43.7227784,-79.45093320000002,BATLgrounds,43.72405414025907,-79.46339833125026,Athletics & Sports
476, Lawrence Heights,43.7227784,-79.45093320000002,Marche Istanbul,43.71912892212775,-79.45763083788877,Grocery Store
477, Lawrence Heights,43.7227784,-79.45093320000002,Victoria's Secret,43.72585526240302,-79.45401330099416,Lingerie Store
478, Lawrence Heights,43.7227784,-79.45093320000002,Swiss Chalet,43.71722432853837,-79.45622274434868,Restaurant
479, Lawrence Heights,43.7227784,-79.45093320000002,Roots,43.71821373389962,-79.46389305304558,Boutique
480, Lawrence Heights,43.7227784,-79.45093320000002,Dollarama,43.720728,-79.457467,Discount Store
481, Lawrence Heights,43.7227784,-79.45093320000002,Kitchen Stuff Plus (Clearance Outlet),43.71909636823933,-79.46267482419971,Furniture / Home Store
482, Lawrence Heights,43.7227784,-79.45093320000002,Playtime Bowl,43.717426948485006,-79.4581475917178,Bowling Alley
483, Lawrence Heights,43.7227784,-79.45093320000002,Michaels,43.732839,-79.453067,Arts & Crafts Store
484, Lawrence Heights,43.7227784,-79.45093320000002,Vivo Pizza And Pasta,43.733176,-79.45076,Italian Restaurant
485, Lawrence Heights,43.7227784,-79.45093320000002,Lac Vien Vietnamese Restaurant,43.72125878799614,-79.46847226859448,Vietnamese Restaurant
486, Lawrence Heights,43.7227784,-79.45093320000002,TD Canada Trust,43.71664740474467,-79.4563113060031,Bank
487, Lawrence Heights,43.7227784,-79.45093320000002,Second Cup,43.73233793829693,-79.45551486658053,Café
488, Lawrence Heights,43.7227784,-79.45093320000002,PetSmart,43.7165437,-79.4459263,Pet Store
489, Lawrence Heights,43.7227784,-79.45093320000002,Red Lobster,43.718952,-79.456245,Seafood Restaurant
490, Lawrence Heights,43.7227784,-79.45093320000002,Starbucks,43.71571314953408,-79.44371729268211,Coffee Shop
491, Lawrence Heights,43.7227784,-79.45093320000002,Tim Hortons,43.7163463,-79.4468676,Coffee Shop
492, Lawrence Heights,43.7227784,-79.45093320000002,Orfus Road Shopping Outlets,43.719045296434736,-79.46084915034818,Clothing Store
493, Lawrence Heights,43.7227784,-79.45093320000002,Lady York Foods,43.709445370032775,-79.45297906087649,Grocery Store
494, Lawrence Heights,43.7227784,-79.45093320000002,Burger King,43.714209646677354,-79.45639595389366,Fast Food Restaurant
495, Lawrence Heights,43.7227784,-79.45093320000002,A&W,43.732993,-79.451272,Fast Food Restaurant
496, Lawrence Heights,43.7227784,-79.45093320000002,Dairy Queen,43.7100679,-79.4534411,Ice Cream Shop
497, Lawrence Heights,43.7227784,-79.45093320000002,Sugar & Spice,43.720714875348285,-79.45666046363836,Dessert Shop
498, Lawrence Heights,43.7227784,-79.45093320000002,The Beer Store,43.7322239,-79.4515235,Beer Store
499, Lawrence Heights,43.7227784,-79.45093320000002,Tim Hortons,43.731739619176786,-79.46022748947138,Coffee Shop
500, Lawrence Heights,43.7227784,-79.45093320000002,Viet House,43.71832569840717,-79.45737310259787,Vietnamese Restaurant
501, Lawrence Heights,43.7227784,-79.45093320000002,KFC,43.7166,-79.447,Fast Food Restaurant
502, Lawrence Heights,43.7227784,-79.45093320000002,Petro-Canada,43.715264,-79.44683,Gas Station
503, Lawrence Heights,43.7227784,-79.45093320000002,Tim Hortons,43.71715541275592,-79.45657432079315,Coffee Shop
504, Lawrence Heights,43.7227784,-79.45093320000002,Subway,43.71646929743055,-79.4548979060329,Sandwich Place
505, Lawrence Heights,43.7227784,-79.45093320000002,Subway,43.731802598053385,-79.46277272783715,Sandwich Place
506, Lawrence Heights,43.7227784,-79.45093320000002,TD Canada Trust,43.71959476063143,-79.43279877315945,Bank
507, Lawrence Heights,43.7227784,-79.45093320000002,Ardene Shoes Outlet,43.718892366644944,-79.46134358371631,Accessories Store
508, Lawrence Heights,43.7227784,-79.45093320000002,Shoeless Joe's,43.718625360000004,-79.45599258,Restaurant
509, Lawrence Heights,43.7227784,-79.45093320000002,Grande Cheese,43.720145524565304,-79.4579511008545,Cheese Shop
510, Lawrence Heights,43.7227784,-79.45093320000002,Tim Hortons,43.7194274,-79.4679949,Coffee Shop
511, Lawrence Heights,43.7227784,-79.45093320000002,Fortinos,43.716656,-79.447257,Grocery Store
512, Lawrence Heights,43.7227784,-79.45093320000002,TTC Platform Yorkdale,43.72508436920864,-79.44763384127717,Platform
513, Lawrence Heights,43.7227784,-79.45093320000002,Yorkdale Subway Station,43.725292803673206,-79.44782181921485,Metro Station
514, Lawrence Heights,43.7227784,-79.45093320000002,Fisherman's Fish & Chips,43.72126351236251,-79.45591565829834,Seafood Restaurant
515, Lawrence Heights,43.7227784,-79.45093320000002,Staples,43.716930535423025,-79.45647239685053,Paper / Office Supplies Store
516, Lawrence Heights,43.7227784,-79.45093320000002,Best Buy,43.73208460392743,-79.4564214348793,Electronics Store
517, Lawrence Heights,43.7227784,-79.45093320000002,McDonald's,43.717134,-79.44736,Fast Food Restaurant
518, Lawrence Heights,43.7227784,-79.45093320000002,Flemington Park,43.721210814285435,-79.44456338882446,Park
519,Queen's Park,43.65965900000001,-79.39033990000001,Jimmy's Coffee,43.65842123574496,-79.38561319551111,Coffee Shop
520,Queen's Park,43.65965900000001,-79.39033990000001,Hailed Coffee,43.65883296982352,-79.38368351986598,Coffee Shop
521,Queen's Park,43.65965900000001,-79.39033990000001,Neo Coffee Bar,43.66014,-79.38587,Coffee Shop
522,Queen's Park,43.65965900000001,-79.39033990000001,Queen's Park,43.66394609897775,-79.39217952520835,Park
523,Queen's Park,43.65965900000001,-79.39033990000001,Tim Hortons,43.658569999999976,-79.38512341104502,Coffee Shop
524,Queen's Park,43.65965900000001,-79.39033990000001,Art Gallery of Ontario,43.654002860337386,-79.39292172707437,Art Gallery
525,Queen's Park,43.65965900000001,-79.39033990000001,Banh Mi Boys,43.659292,-79.381949,Sandwich Place
526,Queen's Park,43.65965900000001,-79.39033990000001,The Queen and Beaver Public House,43.65747228208784,-79.38352412327917,Gastropub
527,Queen's Park,43.65965900000001,-79.39033990000001,The Yoga Sanctuary,43.661499497597596,-79.38363613350754,Yoga Studio
528,Queen's Park,43.65965900000001,-79.39033990000001,Nando's,43.66172826,-79.38639146,Portuguese Restaurant
529,Queen's Park,43.65965900000001,-79.39033990000001,Downtown Toronto,43.65323167517444,-79.38529600606677,Neighborhood
530,Queen's Park,43.65965900000001,-79.39033990000001,Japango,43.65526771691681,-79.38516506734886,Sushi Restaurant
531,Queen's Park,43.65965900000001,-79.39033990000001,Central YMCA,43.663083310067655,-79.38502493214878,Distribution Center
532,Queen's Park,43.65965900000001,-79.39033990000001,Bar Volo,43.66546184849369,-79.38569158315659,Beer Bar
533,Queen's Park,43.65965900000001,-79.39033990000001,Starbucks,43.65945605353152,-79.39041123272168,Coffee Shop
534,Queen's Park,43.65965900000001,-79.39033990000001,The Alley,43.66592244798498,-79.38556672752236,Bubble Tea Shop
535,Queen's Park,43.65965900000001,-79.39033990000001,Sansotei Ramen 三草亭,43.655157467561246,-79.38650067479335,Ramen Restaurant
536,Queen's Park,43.65965900000001,-79.39033990000001,UNIQLO ユニクロ,43.65591027779457,-79.38064099181345,Clothing Store
537,Queen's Park,43.65965900000001,-79.39033990000001,Chatime 日出茶太,43.65554164147378,-79.38468427043244,Bubble Tea Shop
538,Queen's Park,43.65965900000001,-79.39033990000001,DanceLifeX Centre,43.66695583448771,-79.3852972984314,Dance Studio
539,Queen's Park,43.65965900000001,-79.39033990000001,Loblaws,43.661876101184674,-79.37970103481895,Supermarket
540,Queen's Park,43.65965900000001,-79.39033990000001,Maple Leaf Gardens,43.661893748737334,-79.37960504532634,Historic Site
541,Queen's Park,43.65965900000001,-79.39033990000001,Philosopher's Walk,43.666893747498605,-79.39559698104858,Park
542,Queen's Park,43.65965900000001,-79.39033990000001,Scaddabush Italian Kitchen & Bar,43.658920292028725,-79.38289105381784,Italian Restaurant
543,Queen's Park,43.65965900000001,-79.39033990000001,Kinka Izakaya Original,43.66059636632361,-79.37889120754515,Japanese Restaurant
544,Queen's Park,43.65965900000001,-79.39033990000001,Tokyo Sushi,43.665885330936845,-79.38697684868161,Sushi Restaurant
545,Queen's Park,43.65965900000001,-79.39033990000001,Blaze Pizza,43.656518,-79.380015,Pizza Place
546,Queen's Park,43.65965900000001,-79.39033990000001,Koerner Hall,43.667983280307865,-79.3959619437764,Concert Hall
547,Queen's Park,43.65965900000001,-79.39033990000001,Sansotei Ramen 三草亭,43.666734794517005,-79.3853530009483,Ramen Restaurant
548,Queen's Park,43.65965900000001,-79.39033990000001,Seven Lives - Tacos y Mariscos,43.65441817160925,-79.40054467846261,Mexican Restaurant
549,Queen's Park,43.65965900000001,-79.39033990000001,Nathan Phillips Square,43.65227047322295,-79.38351631164551,Plaza
550,Queen's Park,43.65965900000001,-79.39033990000001,Essence of Life Organics,43.65411067840614,-79.4004308758787,Organic Grocery
551,Queen's Park,43.65965900000001,-79.39033990000001,Poke Guys,43.65489527525682,-79.38505238381624,Poke Place
552,Queen's Park,43.65965900000001,-79.39033990000001,Salad King,43.65760101432665,-79.38161963017174,Thai Restaurant
553,Queen's Park,43.65965900000001,-79.39033990000001,Independent City Market,43.657337,-79.401512,Supermarket
554,Queen's Park,43.65965900000001,-79.39033990000001,Royal Ontario Museum,43.668367065616046,-79.3948129405877,Museum
555,Queen's Park,43.65965900000001,-79.39033990000001,Little Pebbles,43.654883,-79.400264,Coffee Shop
556,Queen's Park,43.65965900000001,-79.39033990000001,Yonge-Dundas Square,43.65605389742188,-79.38049504264389,Plaza
557,Queen's Park,43.65965900000001,-79.39033990000001,Kinton Ramen,43.660631695006714,-79.37887964897601,Ramen Restaurant
558,Queen's Park,43.65965900000001,-79.39033990000001,FUEL+,43.66439936324463,-79.38042718414235,Juice Bar
559,Queen's Park,43.65965900000001,-79.39033990000001,Hair Of The Dog,43.66282779855822,-79.37966975971744,Gastropub
560,Queen's Park,43.65965900000001,-79.39033990000001,ROM Museum Store,43.66851433563614,-79.39487921364,Gift Shop
561,Queen's Park,43.65965900000001,-79.39033990000001,Grange Park,43.652487552998565,-79.39205307540142,Park
562,Queen's Park,43.65965900000001,-79.39033990000001,Ed Mirvish Theatre,43.655101567321054,-79.37976762131545,Theater
563,Queen's Park,43.65965900000001,-79.39033990000001,CF Toronto Eaton Centre,43.654646177209955,-79.38113925615237,Shopping Mall
564,Queen's Park,43.65965900000001,-79.39033990000001,The Planet Traveler,43.657202,-79.403568,Hostel
565,Queen's Park,43.65965900000001,-79.39033990000001,Storm Crow Manor,43.66683985695023,-79.38159278029707,Theme Restaurant
566,Queen's Park,43.65965900000001,-79.39033990000001,Golden Patty,43.6546590586465,-79.4011788108254,Caribbean Restaurant
567,Queen's Park,43.65965900000001,-79.39033990000001,North of Brooklyn Pizzeria,43.664383604568975,-79.38037571983865,Pizza Place
568,Queen's Park,43.65965900000001,-79.39033990000001,Sonic Boom,43.650858882525974,-79.39698455156606,Record Shop
569,Queen's Park,43.65965900000001,-79.39033990000001,Jimmy's Coffee,43.65449315540114,-79.40131090393002,Café
570,Queen's Park,43.65965900000001,-79.39033990000001,Friendly Stranger - Cannabis Culture Shop,43.650386666114635,-79.38852348995324,Smoke Shop
571,Queen's Park,43.65965900000001,-79.39033990000001,Indigo,43.66906505288213,-79.38905744719285,Bookstore
572,Queen's Park,43.65965900000001,-79.39033990000001,Indigo,43.65351471121164,-79.38069591056922,Bookstore
573,Queen's Park,43.65965900000001,-79.39033990000001,Kid Icarus,43.653933260442265,-79.40171859012935,Arts & Crafts Store
574,Queen's Park,43.65965900000001,-79.39033990000001,Otto's Berlin Döner,43.65638733696026,-79.40278822246442,Doner Restaurant
575,Queen's Park,43.65965900000001,-79.39033990000001,FIKA Cafe,43.653560276835684,-79.40040209660836,Café
576,Queen's Park,43.65965900000001,-79.39033990000001,Rasa,43.662756751275445,-79.40398803188654,Restaurant
577,Queen's Park,43.65965900000001,-79.39033990000001,Kensington Food Market,43.654058473740236,-79.40037565547179,Farmers Market
578,Queen's Park,43.65965900000001,-79.39033990000001,Eggspectation Bell Trinity Square,43.65314383888587,-79.38198016678167,Breakfast Spot
579,Queen's Park,43.65965900000001,-79.39033990000001,Royal Conservatory of Music,43.66822758218325,-79.39631143267306,Music School
580,Queen's Park,43.65965900000001,-79.39033990000001,Global Cheese,43.65462257332082,-79.4006057130889,Cheese Shop
581,Queen's Park,43.65965900000001,-79.39033990000001,Tiffany & Co.,43.6691352,-79.3934841,Jewelry Store
582,Queen's Park,43.65965900000001,-79.39033990000001,Page One Cafe,43.65777161112601,-79.3760725691681,Café
583,Queen's Park,43.65965900000001,-79.39033990000001,Elgin And Winter Garden Theatres,43.653393796019586,-79.3785073962175,Theater
584,Queen's Park,43.65965900000001,-79.39033990000001,Yasu,43.66283719650635,-79.40321739973975,Japanese Restaurant
585,Queen's Park,43.65965900000001,-79.39033990000001,Smith,43.66692666745884,-79.38142135954267,Breakfast Spot
586,Queen's Park,43.65965900000001,-79.39033990000001,Omg! Oh My Gyro!,43.6500639687058,-79.39110371201055,Souvlaki Shop
587,Queen's Park,43.65965900000001,-79.39033990000001,The Dessert Kitchen,43.66282317865166,-79.40274569154498,Dessert Shop
588,Queen's Park,43.65965900000001,-79.39033990000001,Pi Co.,43.670107,-79.389852,Pizza Place
589,Queen's Park,43.65965900000001,-79.39033990000001,El Trompo,43.6558316709016,-79.40256072891863,Mexican Restaurant
590,Queen's Park,43.65965900000001,-79.39033990000001,Eataly,43.66975356278464,-79.3887197971344,Gourmet Shop
591,Queen's Park,43.65965900000001,-79.39033990000001,The Burgernator,43.65564188206897,-79.40244009529668,Burger Joint
592,Queen's Park,43.65965900000001,-79.39033990000001,Shangri-La Toronto,43.64912919417502,-79.3865566853963,Hotel
593,Queen's Park,43.65965900000001,-79.39033990000001,Her Father's Cider Bar + Kitchen,43.66244824890102,-79.40470324675829,Beer Bar
594,Queen's Park,43.65965900000001,-79.39033990000001,Aroma Espresso Bar,43.66796263749082,-79.38887274197582,Café
595,Queen's Park,43.65965900000001,-79.39033990000001,Grey Gardens,43.653479,-79.401427,Wine Bar
596,Queen's Park,43.65965900000001,-79.39033990000001,Maker Pizza,43.6504011331197,-79.39804047841302,Pizza Place
597,Queen's Park,43.65965900000001,-79.39033990000001,Bar Hop Brewco,43.649068842850404,-79.39345567330301,Beer Bar
598,Queen's Park,43.65965900000001,-79.39033990000001,Starbucks,43.66498,-79.38051,Coffee Shop
599,Queen's Park,43.65965900000001,-79.39033990000001,Voodoo Child,43.65695821626081,-79.40546029795985,Café
600,Queen's Park,43.65965900000001,-79.39033990000001,Thirsty and Miserable,43.65456533618983,-79.4015827891908,Beer Bar
601,Queen's Park,43.65965900000001,-79.39033990000001,Richmond Station,43.65156872562108,-79.37926594000328,American Restaurant
602,Queen's Park,43.65965900000001,-79.39033990000001,Fabarnak,43.66637677585409,-79.38096396850409,Restaurant
603,Queen's Park,43.65965900000001,-79.39033990000001,Burrito Boyz,43.656265264409015,-79.37834318376771,Burrito Place
604,Queen's Park,43.65965900000001,-79.39033990000001,Paramount Fine Foods,43.67067671443592,-79.38986486034777,Middle Eastern Restaurant
605,Queen's Park,43.65965900000001,-79.39033990000001,The Keg Steakhouse + Bar,43.66675618397813,-79.37830241801962,Steakhouse
606,Queen's Park,43.65965900000001,-79.39033990000001,Pai,43.64792310735613,-79.38857932631602,Thai Restaurant
607,Queen's Park,43.65965900000001,-79.39033990000001,Trattoria Nervosa,43.67101871082308,-79.39108133032904,Italian Restaurant
608,Queen's Park,43.65965900000001,-79.39033990000001,Jazz Bistro,43.65567828473835,-79.37927565514764,Music Venue
609,Queen's Park,43.65965900000001,-79.39033990000001,Soho House Toronto,43.64873430659662,-79.38654117564838,Speakeasy
610,Queen's Park,43.65965900000001,-79.39033990000001,Dark Horse Espresso Bar,43.65056381026066,-79.39701810600826,Coffee Shop
611,Queen's Park,43.65965900000001,-79.39033990000001,Alo,43.64857357946059,-79.39624325999638,French Restaurant
612,Queen's Park,43.65965900000001,-79.39033990000001,Bloor-Yorkville,43.670214354942,-79.39104696860365,Shopping Mall
613,Queen's Park,43.65965900000001,-79.39033990000001,Canadian National Ballet School,43.663681,-79.377237,Dance Studio
614,Queen's Park,43.65965900000001,-79.39033990000001,Dumpling House,43.65386003934455,-79.3985583639792,Dumpling Restaurant
615,Queen's Park,43.65965900000001,-79.39033990000001,Fiorio Hair Design,43.670169709332704,-79.39140019059467,Cosmetics Shop
616,Queen's Park,43.65965900000001,-79.39033990000001,Nespresso Boutique - Bar,43.66988316570838,-79.39335858121262,Coffee Shop
617,Queen's Park,43.65965900000001,-79.39033990000001,Kothur Indian Cuisine,43.66787229558206,-79.38565911153148,Indian Restaurant
618,Queen's Park,43.65965900000001,-79.39033990000001,Piano Piano,43.66294872979362,-79.40289804116937,Italian Restaurant
619,Islington Avenue,43.6200875,-79.5127834,Cineplex Cinemas,43.62125133114305,-79.51534632592691,Movie Theater
620,Islington Avenue,43.6200875,-79.5127834,The Pie Commission,43.62354819663253,-79.51226496540828,Restaurant
621,Islington Avenue,43.6200875,-79.5127834,Starbucks,43.624654,-79.508217,Coffee Shop
622,Islington Avenue,43.6200875,-79.5127834,William F. White International Inc.,43.61654208909391,-79.51087229163909,General Entertainment
623,Islington Avenue,43.6200875,-79.5127834,Great Lakes Brewery,43.62279645548608,-79.50467709968385,Brewery
624,Islington Avenue,43.6200875,-79.5127834,Fat Bastard Burrito Co.,43.62209851449942,-79.521880074884,Burrito Place
625,Islington Avenue,43.6200875,-79.5127834,Black Oak Brewing,43.61374711788485,-79.51633914145589,Brewery
626,Islington Avenue,43.6200875,-79.5127834,The Galway Arms,43.624973002860635,-79.50909042138387,Bar
627,Islington Avenue,43.6200875,-79.5127834,Famous People Players,43.61497618857554,-79.52004682299194,Theater
628,Islington Avenue,43.6200875,-79.5127834,Best Portuguese Chicken,43.62434433209041,-79.51248514101782,BBQ Joint
629,Islington Avenue,43.6200875,-79.5127834,Costco,43.62284084676393,-79.50750859991184,Warehouse Store
630,Islington Avenue,43.6200875,-79.5127834,Sushi 2 Go,43.624729304244475,-79.51034837563607,Sushi Restaurant
631,Islington Avenue,43.6200875,-79.5127834,SanRemo Bakery,43.618542136521064,-79.49948481145465,Bakery
632,Islington Avenue,43.6200875,-79.5127834,Moksha Yoga Etobicoke,43.622671736892094,-79.51947824768995,Yoga Studio
633,Islington Avenue,43.6200875,-79.5127834,Dino's Wood Burning Pizza,43.62518558075584,-79.5083538950689,Pizza Place
634,Islington Avenue,43.6200875,-79.5127834,Fit4Less,43.620342,-79.523957,Gym
635,Islington Avenue,43.6200875,-79.5127834,Burrito Boyz,43.62179051874228,-79.52260072049648,Burrito Place
636,Islington Avenue,43.6200875,-79.5127834,Chaban,43.624817,-79.51043,Comfort Food Restaurant
637,Islington Avenue,43.6200875,-79.5127834,Bua Thai,43.62617599626846,-79.50322822597944,Thai Restaurant
638,Islington Avenue,43.6200875,-79.5127834,Kumo Sushi,43.615388808993316,-79.52441452576278,Japanese Restaurant
639,Islington Avenue,43.6200875,-79.5127834,Shawarma Grill Express,43.62176016357076,-79.52253946724997,Middle Eastern Restaurant
640,Islington Avenue,43.6200875,-79.5127834,Golden Lion Restaurant & Bar,43.62292285787151,-79.51086131019957,Restaurant
641,Islington Avenue,43.6200875,-79.5127834,Innovative Rhythm,43.6145668490531,-79.52005622842003,Dance Studio
642,Islington Avenue,43.6200875,-79.5127834,Spoon and Fork,43.62067853539908,-79.52443986647002,Asian Restaurant
643,Islington Avenue,43.6200875,-79.5127834,Wingporium,43.630275355081025,-79.51816911632163,Wings Joint
644,Islington Avenue,43.6200875,-79.5127834,South St. Burger,43.63131374571208,-79.51840794740386,Burger Joint
645,Islington Avenue,43.6200875,-79.5127834,K & B Sushi,43.622269,-79.522485,Sushi Restaurant
646,Islington Avenue,43.6200875,-79.5127834,Harvey's,43.62488493953991,-79.50750258973017,Restaurant
647,Islington Avenue,43.6200875,-79.5127834,Mangosteens Thai Cuisine,43.621419025047864,-79.52477060788105,Thai Restaurant
648,Islington Avenue,43.6200875,-79.5127834,Starbucks,43.61619,-79.525714,Coffee Shop
649,Islington Avenue,43.6200875,-79.5127834,Izba Schnitzel House,43.627567231039265,-79.49740953441696,Eastern European Restaurant
650,Islington Avenue,43.6200875,-79.5127834,Petro-Canada,43.615433,-79.523769,Gas Station
651,Islington Avenue,43.6200875,-79.5127834,Royal Meats BBQ,43.62535277307904,-79.52907322434908,Burger Joint
652,Islington Avenue,43.6200875,-79.5127834,Montana's,43.62304890880994,-79.51591536516725,Restaurant
653,Islington Avenue,43.6200875,-79.5127834,Grappa,43.62711279871419,-79.49950030425045,Italian Restaurant
654,Islington Avenue,43.6200875,-79.5127834,Sushi Kaji,43.6247282003951,-79.5099039762335,Japanese Restaurant
655,Islington Avenue,43.6200875,-79.5127834,RBC Royal Bank,43.62114499109097,-79.52471941208853,Bank
656,Islington Avenue,43.6200875,-79.5127834,Dollarama,43.629883,-79.518627,Discount Store
657,Islington Avenue,43.6200875,-79.5127834,Dairy Queen,43.62454517246728,-79.50860112905497,Ice Cream Shop
658,Islington Avenue,43.6200875,-79.5127834,LCBO,43.623196378765826,-79.51800475603498,Liquor Store
659,Islington Avenue,43.6200875,-79.5127834,The Blue Goose,43.61678873297203,-79.4958701202763,Bar
660,Islington Avenue,43.6200875,-79.5127834,Mario & Selina's No Frills,43.612186,-79.497828,Grocery Store
661,Islington Avenue,43.6200875,-79.5127834,The Beer Store,43.6261633,-79.5054641,Beer Store
662,Islington Avenue,43.6200875,-79.5127834,Mimico Arena,43.612739007491555,-79.49868183926128,Skating Rink
663,Islington Avenue,43.6200875,-79.5127834,Tim Hortons,43.6236706,-79.5156741,Coffee Shop
664,Islington Avenue,43.6200875,-79.5127834,Tim Hortons,43.6244227579421,-79.50938059947481,Coffee Shop
665,Islington Avenue,43.6200875,-79.5127834,Sobeys Kipling,43.620342,-79.523957,Grocery Store
666,Islington Avenue,43.6200875,-79.5127834,Xtreme Couture,43.62479882826459,-79.52862581113357,Gym / Fitness Center
667,Islington Avenue,43.6200875,-79.5127834,Subway,43.61498583974188,-79.52468236383982,Sandwich Place
668,Islington Avenue,43.6200875,-79.5127834,Swiss Chalet,43.61994356458653,-79.52505827492075,Restaurant
669,Islington Avenue,43.6200875,-79.5127834,TD Canada Trust,43.6204588,-79.5269614,Bank
670,Islington Avenue,43.6200875,-79.5127834,Tokyo Sushi,43.62598208538112,-79.5034979579122,Sushi Restaurant
671,Islington Avenue,43.6200875,-79.5127834,Milestones,43.62319681750021,-79.51543041666275,Restaurant
672,Islington Avenue,43.6200875,-79.5127834,Kelseys Original Roadhouse,43.62293379409886,-79.51642720360087,Restaurant
673,Islington Avenue,43.6200875,-79.5127834,Healthy Planet,43.63021350898869,-79.51849539043684,Supplement Shop
674,Islington Avenue,43.6200875,-79.5127834,Hakim Optical,43.620579508069255,-79.52816276001789,Optical Shop
675,Islington Avenue,43.6200875,-79.5127834,Artisano Bakery Café,43.63100591046913,-79.51817164574096,Bakery
676,Islington Avenue,43.6200875,-79.5127834,Subway,43.625673655330914,-79.50227847235321,Sandwich Place
677,Islington Avenue,43.6200875,-79.5127834,7-Eleven,43.6291072,-79.5174309,Convenience Store
678,Islington Avenue,43.6200875,-79.5127834,Kipling-Queensway Mall,43.62029992113995,-79.52390632935753,Shopping Mall
679,Islington Avenue,43.6200875,-79.5127834,Pizza Pizza,43.62645438945521,-79.50235196469175,Pizza Place
680,Islington Avenue,43.6200875,-79.5127834,Subway,43.63165898987162,-79.5190008585837,Sandwich Place
681,Islington Avenue,43.6200875,-79.5127834,McDonald's,43.630001568710206,-79.5181980325409,Fast Food Restaurant
682,Islington Avenue,43.6200875,-79.5127834,Posticino Ristaurante,43.62603838940026,-79.50361534264715,Restaurant
683,Islington Avenue,43.6200875,-79.5127834,Abacus Furniture Design,43.61913476334561,-79.5164287307004,Furniture / Home Store
684,Islington Avenue,43.6200875,-79.5127834,Jim & Maria's No Frills,43.631152,-79.518617,Grocery Store
685,Islington Avenue,43.6200875,-79.5127834,Pazzia,43.624854,-79.509473,Italian Restaurant
686,Islington Avenue,43.6200875,-79.5127834,RONA,43.6293926,-79.5183198,Hardware Store
687,Islington Avenue,43.6200875,-79.5127834,Tim Hortons,43.615247160745426,-79.52470980584616,Coffee Shop
688,Islington Avenue,43.6200875,-79.5127834,Casalife,43.618146384730906,-79.52269304551695,Furniture / Home Store
689,Islington Avenue,43.6200875,-79.5127834,Hina Japanese Restaurant,43.625863,-79.504237,Japanese Restaurant
690,Islington Avenue,43.6200875,-79.5127834,Global Pet Foods,43.62130361903515,-79.52614619559792,Pet Store
691,Islington Avenue,43.6200875,-79.5127834,Royal Canadian Legion #210,43.62885507709014,-79.51890264900013,Social Club
692,Islington Avenue,43.6200875,-79.5127834,Wendy’s,43.61534956154491,-79.52483348082751,Fast Food Restaurant
693,Islington Avenue,43.6200875,-79.5127834,Sleep Country,43.62134,-79.526708,Mattress Store
694,Islington Avenue,43.6200875,-79.5127834,Zam,43.620798112280674,-79.52826523410701,Eastern European Restaurant
695,Islington Avenue,43.6200875,-79.5127834,Once Upon A Child,43.63107450118501,-79.51828995238323,Kids Store
696,Islington Avenue,43.6200875,-79.5127834,Burrito Boyz,43.62665661432599,-79.52634931800284,Burrito Place
697,Islington Avenue,43.6200875,-79.5127834,Value Village,43.63126851470556,-79.51823830604553,Thrift / Vintage Store
698,Islington Avenue,43.6200875,-79.5127834,Koala Tan Tanning Salon & Sunless Spa,43.63137,-79.519006,Tanning Salon
699,Islington Avenue,43.6200875,-79.5127834,Kingsway Boxing Club,43.627254438608404,-79.52668419449365,Gym
700,Islington Avenue,43.6200875,-79.5127834,Krown Etobicoke,43.619759,-79.530293,Auto Workshop
701,Islington Avenue,43.6200875,-79.5127834,Tim Hortons,43.62653008955657,-79.52854290615511,Coffee Shop
702, Humber Valley Village,43.6664717,-79.5243136,Java Joe's Village Cafe,43.662460906352436,-79.53205381416235,Café
703, Humber Valley Village,43.6664717,-79.5243136,"Ma Maison, Boulangerie - Patisserie - Traiteur",43.65949039354277,-79.51362441836238,French Restaurant
704, Humber Valley Village,43.6664717,-79.5243136,James Gardens Park,43.67125628404495,-79.51333759139837,Garden
705, Humber Valley Village,43.6664717,-79.5243136,COBS Bread,43.664940367690775,-79.5204847956449,Bakery
706, Humber Valley Village,43.6664717,-79.5243136,Lambton Golf & Country Club,43.667521559127444,-79.50711656236307,Golf Course
707, Humber Valley Village,43.6664717,-79.5243136,Mastermind Toys,43.65966367232912,-79.51382694968005,Toy / Game Store
708, Humber Valley Village,43.6664717,-79.5243136,St Georges Golf and Country Club,43.674394614408236,-79.53714160371202,Golf Course
709, Humber Valley Village,43.6664717,-79.5243136,Magoo's,43.65943722915739,-79.51417228322768,Burger Joint
710, Humber Valley Village,43.6664717,-79.5243136,Starbucks,43.660005,-79.513883,Coffee Shop
711, Humber Valley Village,43.6664717,-79.5243136,TD Canada Trust,43.6625453,-79.5317488,Bank
712, Humber Valley Village,43.6664717,-79.5243136,Bulk Barn,43.66093887342527,-79.51777280977804,Supermarket
713, Humber Valley Village,43.6664717,-79.5243136,RBC Royal Bank,43.66132858112377,-79.51968440295207,Bank
714, Humber Valley Village,43.6664717,-79.5243136,Shoppers Drug Mart,43.663067,-79.531753,Pharmacy
715, Humber Valley Village,43.6664717,-79.5243136,Shoppers Drug Mart,43.661721,-79.518881,Pharmacy
716, Humber Valley Village,43.6664717,-79.5243136,LCBO,43.66129764810834,-79.51815020642661,Liquor Store
717, Humber Valley Village,43.6664717,-79.5243136,bruno's fine foods,43.65931917079582,-79.51467824415475,Gourmet Shop
718, Humber Valley Village,43.6664717,-79.5243136,Humbertown Shopping Centre,43.66179660557881,-79.51686144733992,Shopping Mall
719, Humber Valley Village,43.6664717,-79.5243136,Loblaws,43.661721,-79.518881,Grocery Store
720, Humber Valley Village,43.6664717,-79.5243136,Swirls,43.66147402726514,-79.50865785529454,Cupcake Shop
721, Humber Valley Village,43.6664717,-79.5243136,Petro-Canada,43.660205,-79.51294,Gas Station
722, Humber Valley Village,43.6664717,-79.5243136,Baskin-Robbins,43.661654485684906,-79.51919035279421,Ice Cream Shop
723, Humber Valley Village,43.6664717,-79.5243136,Thorncrest Drug Store,43.66298764333833,-79.53181698355863,Pharmacy
724, Humber Valley Village,43.6664717,-79.5243136,Lambton Woods Park,43.667225042671646,-79.51200337283993,Park
725, Humber Valley Village,43.6664717,-79.5243136,Pet Valu,43.65961161505481,-79.51394530992641,Pet Store
726, Humber Valley Village,43.6664717,-79.5243136,Living Lighting,43.65970650137794,-79.51383174147428,Lighting Store
727, Humber Valley Village,43.6664717,-79.5243136,Domino's Pizza,43.660675752744986,-79.511291939398,Pizza Place
728, Humber Valley Village,43.6664717,-79.5243136,TTC Bus 73 Royal York,43.6772463547691,-79.51962956928409,Bus Line
729, Humber Valley Village,43.6664717,-79.5243136,Princess Margaret Park,43.66783531448512,-79.53993418272015,Playground
730, Humber Valley Village,43.6664717,-79.5243136,F45 Training Lambton-Kingsway,43.66147575,-79.50886076,Gym
731, Humber Valley Village,43.6664717,-79.5243136,Humber River Recreational Trail,43.664562096916846,-79.50688594237758,Trail
732, Humber Valley Village,43.6664717,-79.5243136,Lambton Arena,43.664771399024815,-79.50599518243155,Skating Rink
733,Malvern,43.8091955,-79.2217008,Shoppers Drug Mart,43.80961,-79.222729,Pharmacy
734,Malvern,43.8091955,-79.2217008,Subway,43.80696135653615,-79.22147584563703,Sandwich Place
735,Malvern,43.8091955,-79.2217008,A&W,43.809291913550695,-79.22300921719665,Fast Food Restaurant
736,Malvern,43.8091955,-79.2217008,Pizza Pizza,43.80661280665735,-79.2212426662445,Pizza Place
737,Malvern,43.8091955,-79.2217008,Malvern Arena,43.808593521938036,-79.21663377206129,Skating Rink
738,Malvern,43.8091955,-79.2217008,Shoppers Drug Mart,43.8064889218881,-79.2230236530304,Pharmacy
739,Malvern,43.8091955,-79.2217008,Pizza Hut,43.80832603333603,-79.2206160906872,Pizza Place
740,Malvern,43.8091955,-79.2217008,KFC,43.806811867682626,-79.22078609079313,Fast Food Restaurant
741,Malvern,43.8091955,-79.2217008,Circle K,43.808096566480764,-79.2204486130208,Convenience Store
742,Malvern,43.8091955,-79.2217008,McDonald's,43.8062366,-79.2215593,Fast Food Restaurant
743,Malvern,43.8091955,-79.2217008,Francois' No Frills,43.808416,-79.22352,Grocery Store
744,Malvern,43.8091955,-79.2217008,Real Fruit Bubble Tea 真果茶坊,43.80670914169484,-79.22275865163135,Bubble Tea Shop
745,Malvern,43.8091955,-79.2217008,Telfer park,43.80730965369703,-79.22640323638916,Park
746,Malvern,43.8091955,-79.2217008,Neilson park,43.81419968235363,-79.22536380785077,Park
747,Malvern,43.8091955,-79.2217008,Cut Creator,43.807030915856686,-79.23060894012451,Salon / Barbershop
748,Malvern,43.8091955,-79.2217008,Eraa Supermarket,43.81710849825727,-79.2192170657117,Grocery Store
749,Malvern,43.8091955,-79.2217008,McLevin park,43.805051810300064,-79.23173044002313,Park
750,Malvern,43.8091955,-79.2217008,Taj supermarket,43.818746412507345,-79.2101724737263,Grocery Store
751, Rouge,43.8049304,-79.1658374,Glen Rouge Campground,43.80316668151155,-79.15518309247824,Campground
752, Rouge,43.8049304,-79.1658374,Petro-Canada,43.807831,-79.171431,Gas Station
753, Rouge,43.8049304,-79.1658374,Dean Park,43.80436379110694,-79.16915938899648,Park
754, Rouge,43.8049304,-79.1658374,Shoppers Drug Mart,43.797156,-79.151061,Pharmacy
755, Rouge,43.8049304,-79.1658374,Pizza Pizza,43.80661280665733,-79.17844533920288,Pizza Place
756, Rouge,43.8049304,-79.1658374,Petro-Canada,43.806354927118385,-79.1796061319527,Gas Station
757, Rouge,43.8049304,-79.1658374,Paul's Breakfast & Burgers,43.80383471735262,-79.1698247978354,Fast Food Restaurant
758, Rouge,43.8049304,-79.1658374,RBC Royal Bank,43.79770137662792,-79.15187683811781,Bank
759, Rouge,43.8049304,-79.1658374,Tallpines Park,43.80317209337827,-79.15531202302122,Park
760, Rouge,43.8049304,-79.1658374,Glen Rouge Trail,43.80320165025182,-79.15519826277398,Trail
761, Rouge,43.8049304,-79.1658374,Twyn Rivers,43.80319960017221,-79.15518340652622,Trail
762, Rouge,43.8049304,-79.1658374,BOSS Fitness,43.794778408419496,-79.15850558959409,Gym / Fitness Center
763, Rouge,43.8049304,-79.1658374,Mr. Lawnmower Landscaping Services,43.80551525608485,-79.18229162693024,Garden
764, Rouge,43.8049304,-79.1658374,joyce trimmer park,43.80626621064408,-79.18267533364352,Park
765, Rouge,43.8049304,-79.1658374,Double Double Pizza and Chicken,43.797174940779186,-79.1521441946296,Pizza Place
766, Rouge,43.8049304,-79.1658374,Orchard Trail,43.814198484971975,-79.15371507998694,Trail
767, Rouge,43.8049304,-79.1658374,Dollarama,43.798108,-79.150874,Discount Store
768,Don Mills,43.775347,-79.3459439,Moxie's Classic Grill,43.777778810576905,-79.34318499889385,American Restaurant
769,Don Mills,43.775347,-79.3459439,The LEGO Store,43.77820727238842,-79.34348299621146,Toy / Game Store
770,Don Mills,43.775347,-79.3459439,Michel's Baguette,43.77708227220403,-79.34455653003414,Bakery
771,Don Mills,43.775347,-79.3459439,De Berardini's,43.77806925637981,-79.34264197549473,Salon / Barbershop
772,Don Mills,43.775347,-79.3459439,CF Fairview Mall,43.777993908591895,-79.34366510981064,Shopping Mall
773,Don Mills,43.775347,-79.3459439,SilverCity,43.77868093228815,-79.3440850072426,Movie Theater
774,Don Mills,43.775347,-79.3459439,New York Fries - Fairview Mall,43.77860499015611,-79.34357713182652,Restaurant
775,Don Mills,43.775347,-79.3459439,Shoppers Drug Mart,43.77817,-79.345014,Pharmacy
776,Don Mills,43.775347,-79.3459439,Hudson's Bay,43.777830351654046,-79.34304327486974,Department Store
777,Don Mills,43.775347,-79.3459439,Apple Fairview,43.7778832,-79.3437891,Electronics Store
778,Don Mills,43.775347,-79.3459439,Starbucks,43.77799,-79.344091,Coffee Shop
779,Don Mills,43.775347,-79.3459439,Purdys Chocolatier,43.77816,-79.344154,Chocolate Shop
780,Don Mills,43.775347,-79.3459439,Ten Ren's Tea Time,43.777158444629066,-79.34453087278449,Juice Bar
781,Don Mills,43.775347,-79.3459439,Graydon Hall Manor,43.76392256055678,-79.34296075662587,Event Space
782,Don Mills,43.775347,-79.3459439,Booster Juice,43.77742786,-79.3449699,Juice Bar
783,Don Mills,43.775347,-79.3459439,Hero Certified Burgers,43.7772948385197,-79.34458372068603,Burger Joint
784,Don Mills,43.775347,-79.3459439,Foodland - Toronto,43.773951,-79.340148,Grocery Store
785,Don Mills,43.775347,-79.3459439,Lara's Restaurant,43.77275131307785,-79.33281161231807,Middle Eastern Restaurant
786,Don Mills,43.775347,-79.3459439,Aroma Espresso Bar,43.777700197902725,-79.34465166972005,Coffee Shop
787,Don Mills,43.775347,-79.3459439,Tim Hortons,43.7749925,-79.3463027,Coffee Shop
788,Don Mills,43.775347,-79.3459439,Old Navy,43.7779901,-79.3440914,Clothing Store
789,Don Mills,43.775347,-79.3459439,Tekka Sushi,43.77417136429855,-79.3404009228877,Japanese Restaurant
790,Don Mills,43.775347,-79.3459439,H&M,43.77754859086118,-79.34560423018411,Clothing Store
791,Don Mills,43.775347,-79.3459439,Mr Jerk,43.78593238518595,-79.35284203626418,Caribbean Restaurant
792,Don Mills,43.775347,-79.3459439,Fairview Mall Food Garden,43.77836930887007,-79.34321606591291,Food Court
793,Don Mills,43.775347,-79.3459439,Allan's Pastry Shop,43.7856560376599,-79.35231415152528,Bakery
794,Don Mills,43.775347,-79.3459439,Fairview Library Theatre,43.779018057023805,-79.34652599431665,Theater
795,Don Mills,43.775347,-79.3459439,TD Canada Trust,43.777763,-79.345974,Bank
796,Don Mills,43.775347,-79.3459439,Tommy Hilfiger,43.77742747193735,-79.34589327979445,Clothing Store
797,Don Mills,43.775347,-79.3459439,天天渔港 Captain's Catch,43.774961,-79.333873,Chinese Restaurant
798,Don Mills,43.775347,-79.3459439,EB Games,43.7781866230844,-79.3433096596408,Video Game Store
799,Don Mills,43.775347,-79.3459439,Omni Palace Noodle House,43.771047,-79.33157,Chinese Restaurant
800,Don Mills,43.775347,-79.3459439,Edward Village,43.77073743663521,-79.33626651763916,Hotel
801,Don Mills,43.775347,-79.3459439,Aroma Espresso Bar,43.77088,-79.331775,Coffee Shop
802,Don Mills,43.775347,-79.3459439,Tim Hortons,43.77524918178477,-79.34773966670036,Coffee Shop
803,Don Mills,43.775347,-79.3459439,Subway,43.77375219472015,-79.34070116762729,Sandwich Place
804,Don Mills,43.775347,-79.3459439,RBC Royal Bank,43.777303882018465,-79.3446527392512,Bank
805,Don Mills,43.775347,-79.3459439,LCBO,43.77895496200283,-79.34504796258686,Liquor Store
806,Don Mills,43.775347,-79.3459439,Tim Hortons,43.777964,-79.344715,Coffee Shop
807,Don Mills,43.775347,-79.3459439,Thai Express,43.77799,-79.344091,Restaurant
808,Don Mills,43.775347,-79.3459439,Hollister Co.,43.778088689883695,-79.34370423838938,Clothing Store
809,Don Mills,43.775347,-79.3459439,GoodLife Fitness North York Sheppard and Consumers,43.774647,-79.328698,Gym
810,Don Mills,43.775347,-79.3459439,Beiruti Grand Cafe,43.773001568417364,-79.33253288902613,Middle Eastern Restaurant
811,Don Mills,43.775347,-79.3459439,Heart Sushi,43.777203,-79.343805,Japanese Restaurant
812,Don Mills,43.775347,-79.3459439,SportChek,43.777760996766865,-79.34315772052062,Sporting Goods Shop
813,Don Mills,43.775347,-79.3459439,SEPHORA,43.7784228,-79.3437426,Cosmetics Shop
814,Don Mills,43.775347,-79.3459439,Subway,43.78583089500218,-79.35195323650834,Sandwich Place
815,Don Mills,43.775347,-79.3459439,KFC,43.7776,-79.3442,Fast Food Restaurant
816,Don Mills,43.775347,-79.3459439,The Beer Store,43.7861261,-79.3526277,Beer Store
817,Don Mills,43.775347,-79.3459439,Zara,43.777961241763556,-79.34469070057258,Clothing Store
818,Don Mills,43.775347,-79.3459439,Petro-Canada,43.787866086930705,-79.35285037610527,Gas Station
819,Don Mills,43.775347,-79.3459439,Petro-Canada,43.775024,-79.333001,Gas Station
820,Don Mills,43.775347,-79.3459439,Tim Hortons,43.77484059769238,-79.3343446925337,Coffee Shop
821,Don Mills,43.775347,-79.3459439,Starbucks,43.769468,-79.362582,Coffee Shop
822,Don Mills,43.775347,-79.3459439,Popeyes Louisiana Kitchen,43.78571942050977,-79.35193421103621,Fried Chicken Joint
823,Don Mills,43.775347,-79.3459439,Pizza Pizza,43.78594607852859,-79.35294215201395,Pizza Place
824,Don Mills,43.775347,-79.3459439,Willie Stouts,43.774448344670816,-79.3308162689209,Pub
825,Don Mills,43.775347,-79.3459439,Shawarma and Kebob,43.76698965408248,-79.34699846901431,Middle Eastern Restaurant
826,Don Mills,43.775347,-79.3459439,Highway 401 & 404 Merge,43.76807896937376,-79.33872196257575,Intersection
827,Don Mills,43.775347,-79.3459439,Old Sheppard Park,43.778128036525004,-79.3333911895752,Park
828,Don Mills,43.775347,-79.3459439,Timothy's World Coffee,43.76961,-79.330904,Coffee Shop
829,Don Mills,43.775347,-79.3459439,Don Valley Prkwy and Hwy 401,43.76611358517061,-79.33831828403376,Intersection
830,Don Mills,43.775347,-79.3459439,Henry Farm Community Tennis Club,43.76766937219664,-79.35773491859435,Tennis Court
831,Don Mills,43.775347,-79.3459439,TTC Bus 122 Graydon Hall,43.76281903010978,-79.34532165527344,Bus Line
832,Don Mills,43.775347,-79.3459439,The Sunshine Patio,43.764607644690656,-79.33610615405992,BBQ Joint
833, Woodbine Gardens,43.7120785,-79.30256729999998,Peek Freans Cookie Outlet,43.71326033174486,-79.30806318602713,Bakery
834, Woodbine Gardens,43.7120785,-79.30256729999998,Gingerman Restaurant,43.707844,-79.29558,Restaurant
835, Woodbine Gardens,43.7120785,-79.30256729999998,Sultan Of Samosas,43.71882306937224,-79.30434985603264,Indian Restaurant
836, Woodbine Gardens,43.7120785,-79.30256729999998,East York Gymnastics,43.710654,-79.309279,Gym / Fitness Center
837, Woodbine Gardens,43.7120785,-79.30256729999998,Toronto Climbing Academy,43.709362,-79.315006,Rock Climbing Spot
838, Woodbine Gardens,43.7120785,-79.30256729999998,Muddy York Brewing Co.,43.71236216662408,-79.31201930161387,Brewery
839, Woodbine Gardens,43.7120785,-79.30256729999998,Jawny Bakers,43.705782646822,-79.31291304477831,Gastropub
840, Woodbine Gardens,43.7120785,-79.30256729999998,Ital Vital Rastarant,43.71721649169922,-79.29380798339844,Vegetarian / Vegan Restaurant
841, Woodbine Gardens,43.7120785,-79.30256729999998,Mexitaco,43.708595,-79.2957,Mexican Restaurant
842, Woodbine Gardens,43.7120785,-79.30256729999998,Cineplex Cinemas,43.72260126644728,-79.29198328049138,Movie Theater
843, Woodbine Gardens,43.7120785,-79.30256729999998,Tim Hortons,43.72339929887286,-79.30264703929424,Coffee Shop
844, Woodbine Gardens,43.7120785,-79.30256729999998,Dairy Queen,43.71037770465013,-79.29070115089417,Ice Cream Shop
845, Woodbine Gardens,43.7120785,-79.30256729999998,Rally Sports Bar + Smokehouse,43.71739116473834,-79.30533787302831,BBQ Joint
846, Woodbine Gardens,43.7120785,-79.30256729999998,The Beer Store,43.7220856,-79.30093,Beer Store
847, Woodbine Gardens,43.7120785,-79.30256729999998,Tim Hortons,43.7144006072751,-79.30735632777214,Coffee Shop
848, Woodbine Gardens,43.7120785,-79.30256729999998,Shoppers Drug Mart,43.705933,-79.312825,Pharmacy
849, Woodbine Gardens,43.7120785,-79.30256729999998,Subway,43.70906989947632,-79.29577449163514,Sandwich Place
850, Woodbine Gardens,43.7120785,-79.30256729999998,McDonald's,43.709283877697544,-79.29524527670384,Fast Food Restaurant
851, Woodbine Gardens,43.7120785,-79.30256729999998,Harvey's,43.71096402126402,-79.30908534280502,Fast Food Restaurant
852, Woodbine Gardens,43.7120785,-79.30256729999998,TD Canada Trust,43.705739883755946,-79.31227013468737,Bank
853, Woodbine Gardens,43.7120785,-79.30256729999998,Subway,43.72280019353569,-79.30346538577851,Sandwich Place
854, Woodbine Gardens,43.7120785,-79.30256729999998,TD Canada Trust,43.7243718,-79.2989645,Bank
855, Woodbine Gardens,43.7120785,-79.30256729999998,Tim Hortons,43.7236297,-79.2989781,Coffee Shop
856, Woodbine Gardens,43.7120785,-79.30256729999998,Tom's No Frills,43.708313,-79.295954,Grocery Store
857, Woodbine Gardens,43.7120785,-79.30256729999998,Pizza Pizza,43.70515901620182,-79.31312955571528,Pizza Place
858, Woodbine Gardens,43.7120785,-79.30256729999998,Shoppers Drug Mart,43.724034,-79.300677,Pharmacy
859, Woodbine Gardens,43.7120785,-79.30256729999998,McDonald's,43.723535,-79.298792,Fast Food Restaurant
860, Woodbine Gardens,43.7120785,-79.30256729999998,KFC,43.7247,-79.2987,Fast Food Restaurant
861, Woodbine Gardens,43.7120785,-79.30256729999998,Eglinton Square Shopping Centre,43.72341286761563,-79.29961681365967,Shopping Mall
862, Woodbine Gardens,43.7120785,-79.30256729999998,TKTO - Toronto Knife Throwing Organization,43.7099660731501,-79.31341111891099,Athletics & Sports
863, Woodbine Gardens,43.7120785,-79.30256729999998,Pizza Hut,43.72237022949396,-79.30300689561652,Pizza Place
864, Woodbine Gardens,43.7120785,-79.30256729999998,Rise & Dine Eatery,43.705769,-79.311638,Breakfast Spot
865, Woodbine Gardens,43.7120785,-79.30256729999998,East York Animal Clinic,43.70592051370348,-79.3121958344716,Pet Store
866, Woodbine Gardens,43.7120785,-79.30256729999998,Freeman Formal Wear,43.71755636140195,-79.3134339002133,Men's Store
867, Woodbine Gardens,43.7120785,-79.30256729999998,Dine.TO,43.71463856518455,-79.31554900448066,Office
868, Woodbine Gardens,43.7120785,-79.30256729999998,City Sports Centre,43.71076403259862,-79.31659226901981,Soccer Stadium
869, Woodbine Gardens,43.7120785,-79.30256729999998,Venice Pizza,43.70592051370348,-79.31395663414658,Pizza Place
870, Woodbine Gardens,43.7120785,-79.30256729999998,St. Clair Ave E & O'Connor Dr,43.70523283448301,-79.31327432821826,Intersection
871, Woodbine Gardens,43.7120785,-79.30256729999998,Fitness Depot,43.719732920431674,-79.31401716097572,Sporting Goods Shop
872, Woodbine Gardens,43.7120785,-79.30256729999998,Metro,43.724387423607254,-79.29822981357177,Supermarket
873, Woodbine Gardens,43.7120785,-79.30256729999998,Clairlea Futbol Centre,43.71523429184505,-79.28650639185544,Soccer Field
874, Woodbine Gardens,43.7120785,-79.30256729999998,Domino's Pizza,43.704880554394386,-79.28849865874372,Pizza Place
875, Woodbine Gardens,43.7120785,-79.30256729999998,Hudson's Bay,43.722911059402804,-79.30078409642624,Department Store
876, Woodbine Gardens,43.7120785,-79.30256729999998,Sullivan Studios,43.7190847329901,-79.28690268368864,General Entertainment
877, Woodbine Gardens,43.7120785,-79.30256729999998,Burger King,43.725089,-79.298033,Fast Food Restaurant
878,Garden District,43.6564995,-79.3771141,Page One Cafe,43.65777161112601,-79.3760725691681,Café
879,Garden District,43.6564995,-79.3771141,UNIQLO ユニクロ,43.65591027779457,-79.38064099181345,Clothing Store
880,Garden District,43.6564995,-79.3771141,Blaze Pizza,43.656518,-79.380015,Pizza Place
881,Garden District,43.6564995,-79.3771141,The Grand Hotel & Suites Toronto,43.65644901207743,-79.3741100180102,Hotel
882,Garden District,43.6564995,-79.3771141,Elgin And Winter Garden Theatres,43.653393796019586,-79.3785073962175,Theater
883,Garden District,43.6564995,-79.3771141,Silver Snail Comics,43.65703137958407,-79.38140310220501,Comic Shop
884,Garden District,43.6564995,-79.3771141,Yonge-Dundas Square,43.65605389742188,-79.38049504264389,Plaza
885,Garden District,43.6564995,-79.3771141,GEORGE Restaurant,43.65334645635036,-79.3744449051126,Restaurant
886,Garden District,43.6564995,-79.3771141,LUSH,43.653557,-79.3804,Cosmetics Shop
887,Garden District,43.6564995,-79.3771141,Banh Mi Boys,43.659292,-79.381949,Sandwich Place
888,Garden District,43.6564995,-79.3771141,The Senator Restaurant,43.65564091455335,-79.37919882575557,Diner
889,Garden District,43.6564995,-79.3771141,Indigo,43.65351471121164,-79.38069591056922,Bookstore
890,Garden District,43.6564995,-79.3771141,Kinka Izakaya Original,43.66059636632361,-79.37889120754515,Japanese Restaurant
891,Garden District,43.6564995,-79.3771141,CF Toronto Eaton Centre,43.654646177209955,-79.38113925615237,Shopping Mall
892,Garden District,43.6564995,-79.3771141,Fahrenheit Coffee,43.65238358726612,-79.37271903848271,Coffee Shop
893,Garden District,43.6564995,-79.3771141,Hailed Coffee,43.65883296982352,-79.38368351986598,Coffee Shop
894,Garden District,43.6564995,-79.3771141,Richmond Station,43.65156872562108,-79.37926594000328,American Restaurant
895,Garden District,43.6564995,-79.3771141,Gyu-Kaku Japanese BBQ,43.651422275497914,-79.37504693687086,Japanese Restaurant
896,Garden District,43.6564995,-79.3771141,Mystic Muffin,43.652483550499326,-79.37265472845176,Middle Eastern Restaurant
897,Garden District,43.6564995,-79.3771141,Kinton Ramen,43.660631695006714,-79.37887964897601,Ramen Restaurant
898,Garden District,43.6564995,-79.3771141,GoodLife Fitness Toronto 137 Yonge Street,43.651242,-79.378068,Gym
899,Garden District,43.6564995,-79.3771141,Samsung Experience Store (Eaton Centre),43.65564777812532,-79.3810108074576,Electronics Store
900,Garden District,43.6564995,-79.3771141,Danish Pastry House,43.654574,-79.38074,Bakery
901,Garden District,43.6564995,-79.3771141,Crepe Delicious,43.654536488277245,-79.38088885547485,Fast Food Restaurant
902,Garden District,43.6564995,-79.3771141,The George Street Diner,43.65297,-79.371467,Diner
903,Garden District,43.6564995,-79.3771141,The Queen and Beaver Public House,43.65747228208784,-79.38352412327917,Gastropub
904,Garden District,43.6564995,-79.3771141,Salad King,43.65760101432665,-79.38161963017174,Thai Restaurant
905,Garden District,43.6564995,-79.3771141,HomeSense,43.6530533,-79.3794496,Furniture / Home Store
906,Garden District,43.6564995,-79.3771141,Loblaws,43.661876101184674,-79.37970103481895,Supermarket
907,Garden District,43.6564995,-79.3771141,Maple Leaf Gardens,43.661893748737334,-79.37960504532634,Historic Site
908,Garden District,43.6564995,-79.3771141,Red Lobster,43.656328,-79.383621,Seafood Restaurant
909,Garden District,43.6564995,-79.3771141,Eggspectation Bell Trinity Square,43.65314383888587,-79.38198016678167,Breakfast Spot
910,Garden District,43.6564995,-79.3771141,Downtown Toronto,43.65323167517444,-79.38529600606677,Neighborhood
911,Garden District,43.6564995,-79.3771141,The Carbon Bar,43.65336708689279,-79.37496515174824,Restaurant
912,Garden District,43.6564995,-79.3771141,Allan Gardens Conservatory,43.661915451854576,-79.3746870789171,Garden
